[
    {
        "SN": 1,
        "Name": "11 Mile-Huntington Park",
        "Location": "686 W Eleven Mile Rd, Berkley, MI 48072",
        "Court Type": "1 outdoor Courts",
        "Access": "Free Access",
        "Lighting": "No Lighting",
        "Court Purpose": "Dedicated Pickleball Courts",
        "Latitude": 42.489397,
        "Longitude": -83.160977
    },
    {
        "SN": 2,
        "Name": "11th Ave Park",
        "Location": "581 Terrace Hills Dr, Salt Lake City, UT 84103",
        "Court Type": "6 outdoor Courts",
        "Access": "Free Access",
        "Lighting": "No Lighting",
        "Court Purpose": "Dedicated Pickleball Courts",
        "Latitude": 40.782743,
        "Longitude": -111.861204
    },
    {
        "SN": 3,
        "Name": "12th Ave Recreation Outdoor",
        "Location": "1717 12th Ave NE, Norman, OK 73071, USA",
        "Court Type": "12 outdoor Courts",
        "Access": "Free Access",
        "Lighting": "No Lighting",
        "Court Purpose": "Dedicated Pickleball Courts",
        "Latitude": 35.239009121213336,
        "Longitude": -97.42344569006306
    },
    {
        "SN": 4,
        "Name": "12th Avenue Outdoor Pickleball Courts",
        "Location": "1701 12th Ave NE, Norman, OK 73071, USA",
        "Court Type": "12 outdoor Courts",
        "Access": "Free Access",
        "Lighting": "No Lighting",
        "Court Purpose": "Dedicated Pickleball Courts",
        "Latitude": 35.23929185,
        "Longitude": -97.42288419546651
    },
    {
        "SN": 5,
        "Name": "12th Street Gym",
        "Location": "489 W 12th St, Hays, KS 67601, USA",
        "Court Type": "1 indoor Courts",
        "Access": "Free Access",
        "Lighting": "Has Lighting",
        "Court Purpose": "Dedicated Pickleball Courts",
        "Latitude": 38.87532494942588,
        "Longitude": -99.33601200494094
    },
    {
        "SN": 6,
        "Name": "1609 Kelly Rd., Apex, NC",
        "Location": "1820 Bodwin Ln, Apex, NC 27502, USA",
        "Court Type": "4 outdoor Courts",
        "Access": "Free Access",
        "Lighting": "Has Lighting",
        "Court Purpose": "Dedicated Pickleball Courts",
        "Latitude": 35.71691423355259,
        "Longitude": -78.86565495951734
    },
    {
        "SN": 7,
        "Name": "16th St Park",
        "Location": "Obrien Ct, Bayonne, NJ 07002, USA",
        "Court Type": "2 outdoor Courts",
        "Access": "Free Access",
        "Lighting": "Has Lighting",
        "Court Purpose": "Dedicated Pickleball Courts",
        "Latitude": 40.660889,
        "Longitude": -74.129238
    },
    {
        "SN": 8,
        "Name": "17 Springs",
        "Location": "2021 AL-14, Millbrook, AL 36054, USA",
        "Court Type": "12 outdoor Courts",
        "Access": "Free Access",
        "Lighting": "No Lighting",
        "Court Purpose": "Dedicated Pickleball Courts",
        "Latitude": 32.49841693877551,
        "Longitude": -86.39764157142857
    },
    {
        "SN": 9,
        "Name": "1st and Bowl",
        "Location": "2969 N 114th St, Wauwatosa, WI 53222, USA",
        "Court Type": "2 indoor Courts",
        "Access": "Membership",
        "Lighting": "Has Lighting",
        "Court Purpose": "Dedicated Pickleball Courts",
        "Latitude": 43.072218250000006,
        "Longitude": -88.0559078516086
    },
    {
        "SN": 10,
        "Name": "212 Puritan Rd Tennis Courts",
        "Location": "212 Puritan Rd, Carnegie, PA, USA",
        "Court Type": "1 outdoor Courts",
        "Access": "Free Access",
        "Lighting": "No Lighting",
        "Court Purpose": "Tennis Courts",
        "Latitude": 40.4212369,
        "Longitude": -80.08890799846009
    },
    {
        "SN": 11,
        "Name": "24 Hour Fitness",
        "Location": "4270 Aloma Ave unit 164, Winter Park, FL 32792, USA",
        "Court Type": "2 indoor Courts",
        "Access": "Membership",
        "Lighting": "No Lighting",
        "Court Purpose": "Dedicated Pickleball Courts",
        "Latitude": 28.612658,
        "Longitude": -81.275787
    },
    {
        "SN": 12,
        "Name": "24 Hour Fitness",
        "Location": "4848 Valley View Ave, Yorba Linda, CA 92886, USA",
        "Court Type": "3 indoor Courts",
        "Access": "Free Access",
        "Lighting": "Has Lighting",
        "Court Purpose": "Court Type Other",
        "Latitude": 33.889934,
        "Longitude": -117.828601
    },
    {
        "SN": 13,
        "Name": "24 Hour Fitness",
        "Location": "300 S Festival Dr, Anaheim, CA 92808, USA",
        "Court Type": "2 outdoor Courts",
        "Access": "Free Access",
        "Lighting": "Has Lighting",
        "Court Purpose": "Court Type Other",
        "Latitude": 33.864865,
        "Longitude": -117.746221
    },
    {
        "SN": 14,
        "Name": "28th Street Park",
        "Location": "3104 SW Bright Rd, Bentonville, AR 72712, USA",
        "Court Type": "8 outdoor Courts",
        "Access": "Free Access",
        "Lighting": "Has Lighting",
        "Court Purpose": "Dedicated Pickleball Courts",
        "Latitude": 36.35513527464063,
        "Longitude": -94.23297560051356
    },
    {
        "SN": 15,
        "Name": "29th Street Recreation Center",
        "Location": "501 29th St, Columbus, GA 31904, USA",
        "Court Type": "2 indoor Courts",
        "Access": "Free Access",
        "Lighting": "Has Lighting",
        "Court Purpose": "COtherourt Type ",
        "Latitude": 32.490776,
        "Longitude": -84.986247
    },
    {
        "SN": 16,
        "Name": "3rd Shot Pickleball",
        "Location": "20 S Bowen St, Longmont, CO 80501, USA",
        "Court Type": "6 outdoor Courts",
        "Access": "Membership",
        "Lighting": "No Lighting",
        "Court Purpose": "Dedicated Pickleball Courts",
        "Latitude": 40.164564151095945,
        "Longitude": -105.11188710876945
    },
    {
        "SN": 17,
        "Name": "40 West Racquet Ball Club",
        "Location": "6421 Baltimore National Pike, Catonsville, MD 21228",
        "Court Type": "10 indoor Courts",
        "Access": "Membership",
        "Lighting": "Has Lighting",
        "Court Purpose": "Tennis Courts",
        "Latitude": 39.2824379,
        "Longitude": -76.7592126
    },
    {
        "SN": 18,
        "Name": "401 Main St",
        "Location": "401 Main St, Islip, NY 11751, USA",
        "Court Type": "2 outdoor Courts",
        "Access": "Free Access",
        "Lighting": "No Lighting",
        "Court Purpose": "Tennis Courts",
        "Latitude": 40.7294505,
        "Longitude": -73.21652407304956
    },
    {
        "SN": 19,
        "Name": "4500 downers grove fitness center",
        "Location": "4500 Belmont Rd, Downers Grove, IL 60515, USA",
        "Court Type": "6 indoor Courts",
        "Access": "Membership",
        "Lighting": "Has Lighting",
        "Court Purpose": "Dedicated Pickleball Courts",
        "Latitude": 41.804278,
        "Longitude": -88.038129
    },
    {
        "SN": 20,
        "Name": "4th street park Pickleball courts",
        "Location": "Lansdale, PA 19446, USA",
        "Court Type": "4 indoor Courts",
        "Access": "Free Access",
        "Lighting": "No Lighting",
        "Court Purpose": "Dedicated Pickleball Courts",
        "Latitude": 40.2414952,
        "Longitude": -75.2837862
    },
    {
        "SN": 21,
        "Name": "50 West Pickleball Courts",
        "Location": "7605 Wooster Pike, Cincinnati, OH 45227, USA",
        "Court Type": "3 outdoor Courts",
        "Access": "Membership",
        "Lighting": "Has Lighting",
        "Court Purpose": "Dedicated Pickleball Courts",
        "Latitude": 39.139311449999994,
        "Longitude": -84.35517710285129
    },
    {
        "SN": 22,
        "Name": "52Twenty Gym @ Temple Baptist Church",
        "Location": "5220, Old Highway 11, Hattiesburg, MS, USA",
        "Court Type": "5 indoor Courts",
        "Access": "Free Access",
        "Lighting": "Has Lighting",
        "Court Purpose": "Dedicated Pickleball Courts",
        "Latitude": 31.3081968,
        "Longitude": -89.40842183232982
    },
    {
        "SN": 23,
        "Name": "53rd Avenue Community Park",
        "Location": "300 NE 53rd Ave,Hillsboro,OR 97124",
        "Court Type": "6 outdoor Courts",
        "Access": "Free Access",
        "Lighting": "No Lighting",
        "Court Purpose": "Tennis Courts",
        "Latitude": 45.522267,
        "Longitude": -122.9277943
    },
    {
        "SN": 24,
        "Name": "6th Street",
        "Location": "6th Street Park, South 6th Street, Kalamazoo, MI, USA",
        "Court Type": "1 outdoor Courts",
        "Access": "Free Access",
        "Lighting": "No Lighting",
        "Court Purpose": "Dedicated Pickleball Courts",
        "Latitude": 42.29171,
        "Longitude": -85.58723
    },
    {
        "SN": 25,
        "Name": "7th & Walnut Downtown",
        "Location": "701 Walnut St, Des Moines, IA 50309, USA",
        "Court Type": "1 outdoor Courts",
        "Access": "Free Access",
        "Lighting": "No Lighting",
        "Court Purpose": "Dedicated Pickleball Courts",
        "Latitude": 41.585695,
        "Longitude": -93.626032
    },
    {
        "SN": 26,
        "Name": "7th Street Park",
        "Location": "33994 Avenue E, Yucaipa, CA 92399",
        "Court Type": "4 outdoor Courts",
        "Access": "Free Access",
        "Lighting": "No Lighting",
        "Court Purpose": "Tennis Courts",
        "Latitude": 34.02672543638402,
        "Longitude": -117.06285464504717
    },
    {
        "SN": 27,
        "Name": "A Copi",
        "Location": "34 Leighton Rd, Augusta, ME 04330, USA",
        "Court Type": "6 indoor Courts",
        "Access": "Membership",
        "Lighting": "Has Lighting",
        "Court Purpose": "Dedicated Pickleball Courts",
        "Latitude": 44.3219427,
        "Longitude": -69.81733849811236
    },
    {
        "SN": 28,
        "Name": "A.B. Sawyer",
        "Location": "9300 Whipps Mill Rd, Louisville, KY 40242, USA",
        "Court Type": "2 outdoor Courts",
        "Access": "Free Access",
        "Lighting": "No Lighting",
        "Court Purpose": "Tennis Courts",
        "Latitude": 38.27231238302027,
        "Longitude": -85.56870381705477
    },
    {
        "SN": 29,
        "Name": "A.I. Root",
        "Location": "Medina, OH 44256, USA",
        "Court Type": "6 outdoor Courts",
        "Access": "Free Access",
        "Lighting": "No Lighting",
        "Court Purpose": "Dedicated Pickleball Courts",
        "Latitude": 41.1383878,
        "Longitude": -81.8637474
    },
    {
        "SN": 30,
        "Name": "A.M Canon Park",
        "Location": "1947 W Maxwell Ave, Spokane, WA 99201, USA",
        "Court Type": "2 outdoor Courts",
        "Access": "Free Access",
        "Lighting": "Has Lighting",
        "Court Purpose": "Dedicated Pickleball Courts",
        "Latitude": 47.670734591836734,
        "Longitude": -117.4406123877551
    },
    {
        "SN": 31,
        "Name": "AAA",
        "Location": "2420 Hopewell Rd, Wentzville, MO 63385, USA",
        "Court Type": "6 indoor Courts",
        "Access": "Membership",
        "Lighting": "No Lighting",
        "Court Purpose": "Court Type Other",
        "Latitude": 38.759378,
        "Longitude": -90.824002
    },
    {
        "SN": 32,
        "Name": "Abbywood Park",
        "Location": "College Rd, Lisle, IL 60532, USA",
        "Court Type": "2 outdoor Courts",
        "Access": "Free Access",
        "Lighting": "No Lighting",
        "Court Purpose": "Tennis Courts",
        "Latitude": 41.78142296517878,
        "Longitude": -88.09281323710262
    },
    {
        "SN": 33,
        "Name": "Abc Park",
        "Location": "801 Adams Blvd, Boulder City, NV 89005",
        "Court Type": "2 outdoor Courts",
        "Access": "Free Access",
        "Lighting": "No Lighting",
        "Court Purpose": "Dedicated Pickleball Courts",
        "Latitude": 35.9683039,
        "Longitude": -114.83121944999999
    },
    {
        "SN": 34,
        "Name": "Abilene Country Club",
        "Location": "4039 S Treadaway Blvd, Abilene, TX 79602, USA",
        "Court Type": "4 outdoor Courts",
        "Access": "Membership",
        "Lighting": "Has Lighting",
        "Court Purpose": "Dedicated Pickleball Courts",
        "Latitude": 32.40824765,
        "Longitude": -99.7383036550105
    },
    {
        "SN": 35,
        "Name": "ACAC Midlothian",
        "Location": "11621 Robious Rd, Midlothian, VA 23113, USA",
        "Court Type": "4 outdoor Courts",
        "Access": "Free Access",
        "Lighting": "No Lighting",
        "Court Purpose": "Tennis Courts",
        "Latitude": 37.52162665,
        "Longitude": -77.61740900084779
    },
    {
        "SN": 36,
        "Name": "Academy Park",
        "Location": "120 Everbright Ave, Franklin, TN 37064, USA",
        "Court Type": "4 outdoor Courts",
        "Access": "Membership",
        "Lighting": "No Lighting",
        "Court Purpose": "Dedicated Pickleball Courts",
        "Latitude": 35.91331308163265,
        "Longitude": -86.87476846938776
    },
    {
        "SN": 37,
        "Name": "ACC Acworth",
        "Location": "4361 Cherokee St, Acworth, GA 30101, USA",
        "Court Type": "6 indoor Courts",
        "Access": "Free Access",
        "Lighting": "Has Lighting",
        "Court Purpose": "Tennis Courts",
        "Latitude": 34.069981999999996,
        "Longitude": -84.67620013838268
    },
    {
        "SN": 38,
        "Name": "Ace Cafe",
        "Location": "100 W Livingston St, Orlando, FL 32801, USA",
        "Court Type": "2 outdoor Courts",
        "Access": "Membership",
        "Lighting": "Has Lighting",
        "Court Purpose": "Dedicated Pickleball Courts",
        "Latitude": 28.547537000158762,
        "Longitude": -81.38811222009964
    },
    {
        "SN": 39,
        "Name": "Ace Pickleball Club",
        "Location": "1425 Market Blvd, Roswell, GA 30076, USA",
        "Court Type": "14 indoor Courts",
        "Access": "Membership",
        "Lighting": "Has Lighting",
        "Court Purpose": "Dedicated Pickleball Courts",
        "Latitude": 34.01824411053445,
        "Longitude": -84.32229557581451
    },
    {
        "SN": 40,
        "Name": "Activity and Senior Center",
        "Location": "310 W Curtis St, Simpsonville, SC 29681, USA",
        "Court Type": "1 unknown Courts",
        "Access": "Free Access",
        "Lighting": "Has Lighting",
        "Court Purpose": "Court Type Other",
        "Latitude": 34.73646910185984,
        "Longitude": -82.25845937464722
    },
    {
        "SN": 41,
        "Name": "Activity Center at Bohrer Park",
        "Location": "506 S Frederick Ave, Gaithersburg, MD 20877, USA",
        "Court Type": "7 indoor Courts",
        "Access": "Membership",
        "Lighting": "Has Lighting",
        "Court Purpose": "Tennis Courts",
        "Latitude": 39.13324945,
        "Longitude": -77.1947911
    },
    {
        "SN": 42,
        "Name": "Activity Center Park",
        "Location": "221 N. Main St, Centerville, OH 45459",
        "Court Type": "6 outdoor Courts",
        "Access": "Free Access",
        "Lighting": "No Lighting",
        "Court Purpose": "Dedicated Pickleball Courts",
        "Latitude": 39.6336,
        "Longitude": -84.15859
    },
    {
        "SN": 43,
        "Name": "ACU Outdoor Courts",
        "Location": "1600 Campus Ct, Abilene, TX 79601, USA",
        "Court Type": "3 outdoor Courts",
        "Access": "Free Access",
        "Lighting": "No Lighting",
        "Court Purpose": "Dedicated Pickleball Courts",
        "Latitude": 32.4676917,
        "Longitude": -99.7118855
    },
    {
        "SN": 44,
        "Name": "Ada park",
        "Location": "1116 Buttrick Ave SE, Ada, MI 49301, USA",
        "Court Type": "4 outdoor Courts",
        "Access": "Free Access",
        "Lighting": "No Lighting",
        "Court Purpose": "Dedicated Pickleball Courts",
        "Latitude": 42.944321907863184,
        "Longitude": -85.48020610888643
    },
    {
        "SN": 45,
        "Name": "Adams Elementary School",
        "Location": "1555 Sw 35th St,Corvallis,OR 97333",
        "Court Type": "8 outdoor Courts",
        "Access": "Free Access",
        "Lighting": "Has Lighting",
        "Court Purpose": "Dedicated Pickleball Courts",
        "Latitude": 44.55214235,
        "Longitude": -123.28842197563819
    },
    {
        "SN": 46,
        "Name": "Adams Township Park",
        "Location": "698 Valencia Rd, Mars, PA 16046, USA",
        "Court Type": "4 outdoor Courts",
        "Access": "Free Access",
        "Lighting": "No Lighting",
        "Court Purpose": "Dedicated Pickleball Courts",
        "Latitude": 40.711213,
        "Longitude": -79.989537
    },
    {
        "SN": 47,
        "Name": "Adamstown Park Courts",
        "Location": "272 W Main St, Denver, PA 17517, USA",
        "Court Type": "2 outdoor Courts",
        "Access": "Free Access",
        "Lighting": "No Lighting",
        "Court Purpose": "Tennis Courts",
        "Latitude": 40.22703483637539,
        "Longitude": -76.13075810876681
    },
    {
        "SN": 48,
        "Name": "Addenbrooke Park",
        "Location": "600 South Kipling Parkway, Lakewood, CO 80226, USA",
        "Court Type": "2 outdoor Courts",
        "Access": "Free Access",
        "Lighting": "No Lighting",
        "Court Purpose": "Tennis Courts",
        "Latitude": 39.703590755395204,
        "Longitude": -105.10953997686174
    },
    {
        "SN": 49,
        "Name": "Addison Athletic Club Pickleball courts",
        "Location": "3990 Beltway Dr, Addison, TX 75001, USA",
        "Court Type": "3 outdoor Courts",
        "Access": "Membership",
        "Lighting": "Has Lighting",
        "Court Purpose": "Dedicated Pickleball Courts",
        "Latitude": 32.95114419995807,
        "Longitude": -96.84697480255761
    },
    {
        "SN": 50,
        "Name": "Addison Park District",
        "Location": "1776 W Centennial Place,Addison,IL 60101",
        "Court Type": "4 outdoor Courts",
        "Access": "Free Access",
        "Lighting": "No Lighting",
        "Court Purpose": "Dedicated Pickleball Courts",
        "Latitude": 42.089099,
        "Longitude": -88.520345
    },
    {
        "SN": 51,
        "Name": "Addison Reserve",
        "Location": "7150 Addison Reserve Blvd, Delray Beach, FL 33446, USA",
        "Court Type": "4 outdoor Courts",
        "Access": "Membership",
        "Lighting": "No Lighting",
        "Court Purpose": "Dedicated Pickleball Courts",
        "Latitude": 26.432882,
        "Longitude": -80.152065
    },
    {
        "SN": 52,
        "Name": "Adell Durbin Park",
        "Location": "3300 Darrow Rd, Stow, OH 44224, USA",
        "Court Type": "4 outdoor Courts",
        "Access": "Free Access",
        "Lighting": "Has Lighting",
        "Court Purpose": "Tennis Courts",
        "Latitude": 41.15472313892503,
        "Longitude": -81.44026833285099
    },
    {
        "SN": 53,
        "Name": "Adero Scottsdale",
        "Location": "13225 N Eagle Ridge Dr, Scottsdale, AZ 85268, USA",
        "Court Type": "6 outdoor Courts",
        "Access": "Free Access",
        "Lighting": "No Lighting",
        "Court Purpose": "Dedicated Pickleball Courts",
        "Latitude": 33.584161,
        "Longitude": -111.708713
    },
    {
        "SN": 54,
        "Name": "Adlai Horn Park",
        "Location": "N62W5865 Columbia Ct, Cedarburg, WI 53012, USA",
        "Court Type": "4 outdoor Courts",
        "Access": "Free Access",
        "Lighting": "No Lighting",
        "Court Purpose": "Dedicated Pickleball Courts",
        "Latitude": 43.29850119550509,
        "Longitude": -87.98287342303848
    },
    {
        "SN": 55,
        "Name": "Adrianna Lane Courts",
        "Location": "Adrianna Ln, Hilton Head Island, SC 29926, USA",
        "Court Type": "4 outdoor Courts",
        "Access": "Membership",
        "Lighting": "No Lighting",
        "Court Purpose": "Tennis Courts",
        "Latitude": 32.215385172872125,
        "Longitude": -80.75014391389625
    },
    {
        "SN": 56,
        "Name": "Adult Wellness Center",
        "Location": "2001 W Persimmon St, Rogers, AR 72756, USA",
        "Court Type": "3 indoor Courts",
        "Access": "Membership",
        "Lighting": "No Lighting",
        "Court Purpose": "Court Type Other",
        "Latitude": 36.3375858,
        "Longitude": -94.1470147
    },
    {
        "SN": 57,
        "Name": "AGC courts",
        "Location": "3205 Carrabassett Dr, Carrabassett Valley, ME 04947, USA",
        "Court Type": "2 indoor Courts",
        "Access": "Membership",
        "Lighting": "Has Lighting",
        "Court Purpose": "Tennis Courts",
        "Latitude": 45.0785255,
        "Longitude": -70.31430119339323
    },
    {
        "SN": 58,
        "Name": "Agoura Hills/Calabasas Community Center",
        "Location": "27040 Malibu Hills Rd, Calabasas, CA 91301",
        "Court Type": "6 indoor Courts",
        "Access": "Membership",
        "Lighting": "Has Lighting",
        "Court Purpose": "Dedicated Pickleball Courts",
        "Latitude": 34.13629914652933,
        "Longitude": -118.71087109613835
    },
    {
        "SN": 59,
        "Name": "Ahwatukee Community Swim & Tennis Center",
        "Location": "4700 Warner Rd, Tempe, AZ 85284",
        "Court Type": "2 outdoor Courts",
        "Access": "Membership",
        "Lighting": "No Lighting",
        "Court Purpose": "Dedicated Pickleball Courts",
        "Latitude": 33.33477795843962,
        "Longitude": -111.8978393994789
    },
    {
        "SN": 60,
        "Name": "Ahwatukee Recreation Center",
        "Location": "4915 E Cheyenne Dr, Phoenix, AZ 85044",
        "Court Type": "4 outdoor Courts",
        "Access": "Membership",
        "Lighting": "No Lighting",
        "Court Purpose": "Dedicated Pickleball Courts",
        "Latitude": 33.3453266,
        "Longitude": -111.97792199090202
    },
    {
        "SN": 61,
        "Name": "Aidenn Lair Park",
        "Location": "1565 Arran Way,Dresher,PA 19025",
        "Court Type": "4 outdoor Courts",
        "Access": "Free Access",
        "Lighting": "No Lighting",
        "Court Purpose": "Tennis Courts",
        "Latitude": 40.152779,
        "Longitude": -75.163282
    },
    {
        "SN": 62,
        "Name": "Airport Fitness",
        "Location": "24 Airport Rd, Vineyard Haven, MA 02568, USA",
        "Court Type": "3 indoor Courts",
        "Access": "Membership",
        "Lighting": "No Lighting",
        "Court Purpose": "Dedicated Pickleball Courts",
        "Latitude": 41.261088,
        "Longitude": -70.064672
    },
    {
        "SN": 63,
        "Name": "Airport lakes courts",
        "Location": "PT ORANGE, FL 32128, USA",
        "Court Type": "8 outdoor Courts",
        "Access": "Free Access",
        "Lighting": "No Lighting",
        "Court Purpose": "Dedicated Pickleball Courts",
        "Latitude": 29.1386874,
        "Longitude": -80.9968286
    },
    {
        "SN": 64,
        "Name": "Airport Park",
        "Location": "500 Colchester Point Rd,Colchester,VT 5446",
        "Court Type": "2 outdoor Courts",
        "Access": "Free Access",
        "Lighting": "No Lighting",
        "Court Purpose": "Tennis Courts",
        "Latitude": 44.546394222214495,
        "Longitude": -73.29429291724946
    },
    {
        "SN": 65,
        "Name": "Airport park",
        "Location": "Matamoras, PA 18336, USA",
        "Court Type": "2 outdoor Courts",
        "Access": "Free Access",
        "Lighting": "No Lighting",
        "Court Purpose": "Dedicated Pickleball Courts",
        "Latitude": 41.3687049,
        "Longitude": -74.7001632
    },
    {
        "SN": 66,
        "Name": "Ajo Palo Verde Park",
        "Location": "625 N Well Rd, Ajo, AZ 85321",
        "Court Type": "2 outdoor Courts",
        "Access": "Free Access",
        "Lighting": "Has Lighting",
        "Court Purpose": "Dedicated Pickleball Courts",
        "Latitude": 32.37827883806661,
        "Longitude": -112.85808713311246
    },
    {
        "SN": 67,
        "Name": "Al Kruse Tennis Center",
        "Location": "502 King St, Corpus Christi, TX 78401, USA",
        "Court Type": "10 outdoor Courts",
        "Access": "Membership",
        "Lighting": "No Lighting",
        "Court Purpose": "Dedicated Pickleball Courts",
        "Latitude": 27.787798660165006,
        "Longitude": -97.40067309929412
    },
    {
        "SN": 68,
        "Name": "Al Oerter Recreation Center",
        "Location": "131-40 Fowler Ave, Queens, NY 11355, USA",
        "Court Type": "1 outdoor Courts",
        "Access": "Membership",
        "Lighting": "No Lighting",
        "Court Purpose": "Tennis Courts",
        "Latitude": 40.751381949999995,
        "Longitude": -73.83400719309054
    },
    {
        "SN": 69,
        "Name": "Alamar Park",
        "Location": "4155 S El Mirage Rd, Avondale, AZ 85323, USA",
        "Court Type": "4 outdoor Courts",
        "Access": "Free Access",
        "Lighting": "Has Lighting",
        "Court Purpose": "Dedicated Pickleball Courts",
        "Latitude": 33.41670603814921,
        "Longitude": -112.32356502652365
    },
    {
        "SN": 70,
        "Name": "Alan Fleming Tennis complex at Johns Island County",
        "Location": "Rewes Ln, Johns Island, SC 29455, USA",
        "Court Type": "4 outdoor Courts",
        "Access": "Free Access",
        "Lighting": "Has Lighting",
        "Court Purpose": "Tennis Courts",
        "Latitude": 32.72498685,
        "Longitude": -80.08559555
    },
    {
        "SN": 71,
        "Name": "Alberta Banks",
        "Location": "5575 GC Crow Rd #2704, Flowery Branch, GA 30542, USA",
        "Court Type": "9 outdoor Courts",
        "Access": "Free Access",
        "Lighting": "No Lighting",
        "Court Purpose": "Dedicated Pickleball Courts",
        "Latitude": 34.202435,
        "Longitude": -83.953156
    },
    {
        "SN": 72,
        "Name": "Albion Field",
        "Location": "24 Berkshire Dr, Albion, RI 2802",
        "Court Type": "1 outdoor Courts",
        "Access": "Free Access",
        "Lighting": "No Lighting",
        "Court Purpose": "Dedicated Pickleball Courts",
        "Latitude": 41.95175461788286,
        "Longitude": -71.45801735267378
    },
    {
        "SN": 73,
        "Name": "Alden City Park",
        "Location": "1018 Water St, Alden, IA 50006, USA",
        "Court Type": "1 outdoor Courts",
        "Access": "Free Access",
        "Lighting": "No Lighting",
        "Court Purpose": "Dedicated Pickleball Courts",
        "Latitude": 42.519450974617506,
        "Longitude": -93.37450512943867
    },
    {
        "SN": 74,
        "Name": "Aldergate Park",
        "Location": "28860 Aldergate Dr, Menifee, CA 92584",
        "Court Type": "2 outdoor Courts",
        "Access": "Free Access",
        "Lighting": "No Lighting",
        "Court Purpose": "Dedicated Pickleball Courts",
        "Latitude": 33.693971638848794,
        "Longitude": -117.17574176768697
    },
    {
        "SN": 75,
        "Name": "Aldersgate",
        "Location": "400 Damascus Rd, Marysville, OH 43040, USA",
        "Court Type": "2 outdoor Courts",
        "Access": "Free Access",
        "Lighting": "No Lighting",
        "Court Purpose": "Dedicated Pickleball Courts",
        "Latitude": 40.233808,
        "Longitude": -83.390135
    },
    {
        "SN": 76,
        "Name": "Alderwood",
        "Location": "28885 Baxter Rd, Murrieta, CA 92563, USA",
        "Court Type": "2 outdoor Courts",
        "Access": "Free Access",
        "Lighting": "No Lighting",
        "Court Purpose": "Dedicated Pickleball Courts",
        "Latitude": 33.61215676701438,
        "Longitude": -117.1567418565967
    },
    {
        "SN": 77,
        "Name": "Alex",
        "Location": "Redlands, CA, USA",
        "Court Type": "1 both Courts",
        "Access": "Free Access",
        "Lighting": "No Lighting",
        "Court Purpose": "Dedicated Pickleball Courts",
        "Latitude": 34.0550328,
        "Longitude": -117.1827445
    },
    {
        "SN": 78,
        "Name": "Alexander-Carr Park",
        "Location": "28 Pierce Ave, Derry, NH 03038",
        "Court Type": "2 outdoor Courts",
        "Access": "Free Access",
        "Lighting": "No Lighting",
        "Court Purpose": "Tennis Courts",
        "Latitude": 42.87794046972305,
        "Longitude": -71.31850727701358
    },
    {
        "SN": 79,
        "Name": "Alexian Court",
        "Location": "303 Ohio Ave, Signal Mountain, TN 37377, USA",
        "Court Type": "1 outdoor Courts",
        "Access": "Free Access",
        "Lighting": "No Lighting",
        "Court Purpose": "Dedicated Pickleball Courts",
        "Latitude": 35.12442876023056,
        "Longitude": -85.36225357155449
    },
    {
        "SN": 80,
        "Name": "Alfred E Smith Recreation",
        "Location": "80 Catherine St, New York, NY 10038, USA",
        "Court Type": "3 indoor Courts",
        "Access": "Free Access",
        "Lighting": "Has Lighting",
        "Court Purpose": "Court Type Other",
        "Latitude": 40.710444249999995,
        "Longitude": -73.99713230852547
    },
    {
        "SN": 81,
        "Name": "Alki Playground",
        "Location": "5817 SW Lander St, Seattle, WA 98116, USA",
        "Court Type": "4 outdoor Courts",
        "Access": "Free Access",
        "Lighting": "Has Lighting",
        "Court Purpose": "Tennis Courts",
        "Latitude": 47.578971,
        "Longitude": -122.4073133
    },
    {
        "SN": 82,
        "Name": "All Abilities Trane Park",
        "Location": "1500 Chase St, La Crosse, WI 54601, USA",
        "Court Type": "8 outdoor Courts",
        "Access": "Free Access",
        "Lighting": "No Lighting",
        "Court Purpose": "Dedicated Pickleball Courts",
        "Latitude": 43.78691,
        "Longitude": -91.234358
    },
    {
        "SN": 83,
        "Name": "All In Pickleball Gym",
        "Location": "400 76th St SW ste 8, Byron Center, MI 49315, USA",
        "Court Type": "7 indoor Courts",
        "Access": "Membership",
        "Lighting": "Has Lighting",
        "Court Purpose": "Dedicated Pickleball Courts",
        "Latitude": 42.826261,
        "Longitude": -85.672604
    },
    {
        "SN": 84,
        "Name": "Allan Witt Park",
        "Location": "1741 W Texas St, Fairfield, CA 94533, USA",
        "Court Type": "16 outdoor Courts",
        "Access": "Free Access",
        "Lighting": "Has Lighting",
        "Court Purpose": "Dedicated Pickleball Courts",
        "Latitude": 38.248176,
        "Longitude": -122.06106199999999
    },
    {
        "SN": 85,
        "Name": "Allen",
        "Location": "Allentown, NJ, USA",
        "Court Type": "2 outdoor Courts",
        "Access": "Free Access",
        "Lighting": "No Lighting",
        "Court Purpose": "Dedicated Pickleball Courts",
        "Latitude": 40.1778887,
        "Longitude": -74.5834887
    },
    {
        "SN": 86,
        "Name": "Allen park",
        "Location": "45 Motor Ave, South Farmingdale, NY 11735, USA",
        "Court Type": "3 outdoor Courts",
        "Access": "Free Access",
        "Lighting": "No Lighting",
        "Court Purpose": "Tennis Courts",
        "Latitude": 40.72501482142857,
        "Longitude": -73.4468657857143
    },
    {
        "SN": 87,
        "Name": "Allendale",
        "Location": "240 Allendale Rd, Pasadena, CA 91106, USA",
        "Court Type": "4 outdoor Courts",
        "Access": "Free Access",
        "Lighting": "Has Lighting",
        "Court Purpose": "Dedicated Pickleball Courts",
        "Latitude": 34.12551967346939,
        "Longitude": -118.14498714285715
    },
    {
        "SN": 88,
        "Name": "Allendale Charter Township Park",
        "Location": "6676 Lake Michigan Dr, Allendale, MI 49401",
        "Court Type": "2 outdoor Courts",
        "Access": "Free Access",
        "Lighting": "No Lighting",
        "Court Purpose": "Dedicated Pickleball Courts",
        "Latitude": 42.972514234375,
        "Longitude": -85.95126284375
    },
    {
        "SN": 89,
        "Name": "Allendale park",
        "Location": "1130 S Marengo Ave, Pasadena, CA 91106, USA",
        "Court Type": "4 outdoor Courts",
        "Access": "Free Access",
        "Lighting": "Has Lighting",
        "Court Purpose": "Dedicated Pickleball Courts",
        "Latitude": 34.12627055102041,
        "Longitude": -118.14566446938775
    },
    {
        "SN": 90,
        "Name": "Allenton Pickleball Courts",
        "Location": "311 1st St, Allenton, WI 53002",
        "Court Type": "4 outdoor Courts",
        "Access": "Membership",
        "Lighting": "No Lighting",
        "Court Purpose": "Tennis Courts",
        "Latitude": 43.420429020408164,
        "Longitude": -88.33995979591836
    },
    {
        "SN": 91,
        "Name": "Alley pond tennis center",
        "Location": "79-20 Winchester Blvd, Queens, NY 11427, USA",
        "Court Type": "4 outdoor Courts",
        "Access": "Membership",
        "Lighting": "No Lighting",
        "Court Purpose": "Dedicated Pickleball Courts",
        "Latitude": 40.742259,
        "Longitude": -73.733472
    },
    {
        "SN": 92,
        "Name": "Alley Pond Tennis Center",
        "Location": "79-20 Winchester Blvd, Queens, NY 11427, USA",
        "Court Type": "19 both Courts",
        "Access": "Membership",
        "Lighting": "No Lighting",
        "Court Purpose": "Tennis Courts",
        "Latitude": 40.742259,
        "Longitude": -73.733472
    },
    {
        "SN": 93,
        "Name": "Almaden Valley Athletic Club",
        "Location": "5400 Camden Ave, San Jose, CA 95124",
        "Court Type": "5 outdoor Courts",
        "Access": "Membership",
        "Lighting": "No Lighting",
        "Court Purpose": "Dedicated Pickleball Courts",
        "Latitude": 37.24056609514598,
        "Longitude": -121.90402122073333
    },
    {
        "SN": 94,
        "Name": "Alper JCC",
        "Location": "11155 SW 112th Ave, Miami, FL 33176, USA",
        "Court Type": "3 indoor Courts",
        "Access": "Membership",
        "Lighting": "No Lighting",
        "Court Purpose": "Dedicated Pickleball Courts",
        "Latitude": 25.665302,
        "Longitude": -80.3734121
    },
    {
        "SN": 95,
        "Name": "Alpine Timberline Middle School",
        "Location": "500 West Canyon Crest, Alpine, UT 84004",
        "Court Type": "8 outdoor Courts",
        "Access": "Free Access",
        "Lighting": "No Lighting",
        "Court Purpose": "Tennis Courts",
        "Latitude": 40.45054265,
        "Longitude": -111.78718389986369
    },
    {
        "SN": 96,
        "Name": "Alta Canyon Park",
        "Location": "Rocklin Cir, Sandy, UT 84092, USA",
        "Court Type": "5 outdoor Courts",
        "Access": "Free Access",
        "Lighting": "No Lighting",
        "Court Purpose": "Dedicated Pickleball Courts",
        "Latitude": 40.57381825320327,
        "Longitude": -111.83116532530481
    },
    {
        "SN": 97,
        "Name": "Alta Laguna Park",
        "Location": "3299 Alta Laguna Blvd, Laguna Beach, CA 92651",
        "Court Type": "2 outdoor Courts",
        "Access": "Free Access",
        "Lighting": "No Lighting",
        "Court Purpose": "Tennis Courts",
        "Latitude": 33.55366898221382,
        "Longitude": -117.75837056791262
    },
    {
        "SN": 98,
        "Name": "Alta Vista Park",
        "Location": "10631 W Williams Rd, Peoria, AZ 85383, USA",
        "Court Type": "2 outdoor Courts",
        "Access": "Free Access",
        "Lighting": "Has Lighting",
        "Court Purpose": "Dedicated Pickleball Courts",
        "Latitude": 33.688820641543145,
        "Longitude": -112.28833396311788
    },
    {
        "SN": 99,
        "Name": "Altamont Park Pickleball Court",
        "Location": "708 East Dolly Ann Drive, Covington, VA, USA",
        "Court Type": "2 outdoor Courts",
        "Access": "Free Access",
        "Lighting": "No Lighting",
        "Court Purpose": "Dedicated Pickleball Courts",
        "Latitude": 37.77848310080672,
        "Longitude": -79.98077435398211
    },
    {
        "SN": 100,
        "Name": "Altis by Tri pointe homes",
        "Location": "1545 Skystone Wy, Beaumont, CA 92223, USA",
        "Court Type": "5 outdoor Courts",
        "Access": "Free Access",
        "Lighting": "No Lighting",
        "Court Purpose": "Dedicated Pickleball Courts",
        "Latitude": 33.95054838089372,
        "Longitude": -116.95110372443614
    },
    {
        "SN": 101,
        "Name": "Altissima Park",
        "Location": "30082 Melinda Rd, Rancho Santa Margarita, CA 92688, USA",
        "Court Type": "4 outdoor Courts",
        "Access": "Free Access",
        "Lighting": "No Lighting",
        "Court Purpose": "Dedicated Pickleball Courts",
        "Latitude": 33.659007349999996,
        "Longitude": -117.61716481010822
    },
    {
        "SN": 102,
        "Name": "Alverthorpe Park",
        "Location": "Forrest Ave & Douglas Ave,Elkins Park,PA 19046",
        "Court Type": "4 outdoor Courts",
        "Access": "Membership",
        "Lighting": "No Lighting",
        "Court Purpose": "Tennis Courts",
        "Latitude": 40.092115,
        "Longitude": -75.102216
    },
    {
        "SN": 103,
        "Name": "Amador Park",
        "Location": "401 Amador St, Vallejo, CA 94590, USA",
        "Court Type": "2 outdoor Courts",
        "Access": "Free Access",
        "Lighting": "No Lighting",
        "Court Purpose": "Tennis Courts",
        "Latitude": 38.103067,
        "Longitude": -122.243667
    },
    {
        "SN": 104,
        "Name": "Amberfield Clubhouse",
        "Location": "4101 Golden Leaf Grove, Norcross, GA 30092, USA",
        "Court Type": "4 outdoor Courts",
        "Access": "Membership",
        "Lighting": "No Lighting",
        "Court Purpose": "Tennis Courts",
        "Latitude": 33.980534,
        "Longitude": -84.223523
    },
    {
        "SN": 105,
        "Name": "Ambler Rec Center Courts",
        "Location": "1740 Watkins Center Dr, Lawrence, KS 66045, USA",
        "Court Type": "3 both Courts",
        "Access": "Free Access",
        "Lighting": "No Lighting",
        "Court Purpose": "Dedicated Pickleball Courts",
        "Latitude": 38.952511599999994,
        "Longitude": -95.24792926644174
    },
    {
        "SN": 106,
        "Name": "American Legion playground",
        "Location": "1 American Legion Road, Stillwater, NY 12170, USA",
        "Court Type": "1 outdoor Courts",
        "Access": "Free Access",
        "Lighting": "No Lighting",
        "Court Purpose": "Dedicated Pickleball Courts",
        "Latitude": 42.626565,
        "Longitude": -73.748774
    },
    {
        "SN": 107,
        "Name": "American Sports Centers",
        "Location": "755 N 114th Ave, Avondale, AZ 85323, USA",
        "Court Type": "2 indoor Courts",
        "Access": "Membership",
        "Lighting": "Has Lighting",
        "Court Purpose": "Dedicated Pickleball Courts",
        "Latitude": 33.4539328,
        "Longitude": -112.3045283
    },
    {
        "SN": 108,
        "Name": "Ames Fitness Center",
        "Location": "3600 University Blvd, Ames, IA 50010, USA",
        "Court Type": "4 indoor Courts",
        "Access": "Membership",
        "Lighting": "No Lighting",
        "Court Purpose": "Court Type Other",
        "Latitude": 41.9900832,
        "Longitude": -93.6381571
    },
    {
        "SN": 109,
        "Name": "Amira Resort & Spa",
        "Location": "1871 W Canyon View Dr, St George, UT 84770",
        "Court Type": "2 outdoor Courts",
        "Access": "Membership",
        "Lighting": "No Lighting",
        "Court Purpose": "Dedicated Pickleball Courts",
        "Latitude": 37.091874574969296,
        "Longitude": -113.62486927090352
    },
    {
        "SN": 110,
        "Name": "Amway Grand Hotel",
        "Location": "187 Monroe Ave NW, Grand Rapids, MI 49503, USA",
        "Court Type": "4 outdoor Courts",
        "Access": "Membership",
        "Lighting": "No Lighting",
        "Court Purpose": "Dedicated Pickleball Courts",
        "Latitude": 42.9668113,
        "Longitude": -85.67254881976629
    },
    {
        "SN": 111,
        "Name": "Amy",
        "Location": "R25M+R3, New York, NY 10025, USA",
        "Court Type": "1 outdoor Courts",
        "Access": "Free Access",
        "Lighting": "No Lighting",
        "Court Purpose": "Dedicated Pickleball Courts",
        "Latitude": 40.7975,
        "Longitude": -73.9683
    },
    {
        "SN": 112,
        "Name": "Anaheim Tennis Center",
        "Location": "975 State College Blvd, Anaheim, CA 92806",
        "Court Type": "12 outdoor Courts",
        "Access": "Membership",
        "Lighting": "Has Lighting",
        "Court Purpose": "Dedicated Pickleball Courts",
        "Latitude": 33.82489725,
        "Longitude": -117.8896216751885
    },
    {
        "SN": 113,
        "Name": "Anchor Down Rv Resort",
        "Location": "1703 Highway 139,Dandridge,TN 37725",
        "Court Type": "2 outdoor Courts",
        "Access": "Membership",
        "Lighting": "No Lighting",
        "Court Purpose": "Dedicated Pickleball Courts",
        "Latitude": 35.973237,
        "Longitude": -83.519359
    },
    {
        "SN": 114,
        "Name": "Anderson Ave Tennis Court",
        "Location": "36 Russell Rd, Milford, CT 06460, USA",
        "Court Type": "4 outdoor Courts",
        "Access": "Free Access",
        "Lighting": "No Lighting",
        "Court Purpose": "Tennis Courts",
        "Latitude": 41.2358502,
        "Longitude": -72.9994309
    },
    {
        "SN": 115,
        "Name": "Anderson Island Community Fitness Center",
        "Location": "10804 Eckenstam Johnson Rd, Anderson Island, WA 98303, USA",
        "Court Type": "2 outdoor Courts",
        "Access": "Free Access",
        "Lighting": "No Lighting",
        "Court Purpose": "Tennis Courts",
        "Latitude": 47.159093,
        "Longitude": -122.704521
    },
    {
        "SN": 116,
        "Name": "Anderson Park",
        "Location": "1402 Michigan Ave, Maumee, OH 43537, USA",
        "Court Type": "4 outdoor Courts",
        "Access": "Free Access",
        "Lighting": "No Lighting",
        "Court Purpose": "Dedicated Pickleball Courts",
        "Latitude": 41.58516289795919,
        "Longitude": -83.63648944897959
    },
    {
        "SN": 117,
        "Name": "Anderson Sports Center",
        "Location": "3027 Martin Luther King Junior Boulevard, Anderson, SC, USA",
        "Court Type": "8 outdoor Courts",
        "Access": "Free Access",
        "Lighting": "Has Lighting",
        "Court Purpose": "Dedicated Pickleball Courts",
        "Latitude": 33.45274,
        "Longitude": -79.579532
    },
    {
        "SN": 118,
        "Name": "Andover - Cornerstone",
        "Location": "2253 Stonegate Cir, Andover, KS 67002, USA",
        "Court Type": "1 outdoor Courts",
        "Access": "Free Access",
        "Lighting": "No Lighting",
        "Court Purpose": "Dedicated Pickleball Courts",
        "Latitude": 37.726621262429106,
        "Longitude": -97.143079342304
    },
    {
        "SN": 119,
        "Name": "Andover Community Center",
        "Location": "1008 E 13th St, Andover, KS 67002",
        "Court Type": "3 indoor Courts",
        "Access": "Membership",
        "Lighting": "Has Lighting",
        "Court Purpose": "Dedicated Pickleball Courts",
        "Latitude": 37.708624998859946,
        "Longitude": -97.12418225212478
    },
    {
        "SN": 120,
        "Name": "Andover Farha Sports Complex",
        "Location": "640 YMCA Dr, Andover, KS 67002, USA",
        "Court Type": "4 indoor Courts",
        "Access": "Membership",
        "Lighting": "No Lighting",
        "Court Purpose": "Court Type Other",
        "Latitude": 37.676615795167905,
        "Longitude": -97.1224669989359
    },
    {
        "SN": 121,
        "Name": "Andover Recreation Park",
        "Location": "147 Abbot St, Andover, MA 1810",
        "Court Type": "5 outdoor Courts",
        "Access": "Free Access",
        "Lighting": "Has Lighting",
        "Court Purpose": "Dedicated Pickleball Courts",
        "Latitude": 42.6365392,
        "Longitude": -71.14959918879852
    },
    {
        "SN": 122,
        "Name": "Andrew McAllister",
        "Location": "103 Suffolk Ct, Longwood, FL 32779, USA",
        "Court Type": "1 both Courts",
        "Access": "Free Access",
        "Lighting": "Has Lighting",
        "Court Purpose": "Dedicated Pickleball Courts",
        "Latitude": 28.686875,
        "Longitude": -81.445236
    },
    {
        "SN": 123,
        "Name": "Andrew Spinas Park",
        "Location": "3003 Bay Rd, Redwood City, CA 94063, USA",
        "Court Type": "2 outdoor Courts",
        "Access": "Free Access",
        "Lighting": "No Lighting",
        "Court Purpose": "Tennis Courts",
        "Latitude": 37.4827488,
        "Longitude": -122.2010701
    },
    {
        "SN": 124,
        "Name": "Andy Adams",
        "Location": "1713 E 1000 N, Layton, UT 84040, USA",
        "Court Type": "2 outdoor Courts",
        "Access": "Free Access",
        "Lighting": "No Lighting",
        "Court Purpose": "Dedicated Pickleball Courts",
        "Latitude": 41.06010405,
        "Longitude": -111.9581684
    },
    {
        "SN": 125,
        "Name": "Angela Hibbard Park",
        "Location": "616 Drum Point Rd, Brick, NJ 8723",
        "Court Type": "5 outdoor Courts",
        "Access": "Free Access",
        "Lighting": "No Lighting",
        "Court Purpose": "Dedicated Pickleball Courts",
        "Latitude": 40.0248145,
        "Longitude": -74.10214450000001
    },
    {
        "SN": 126,
        "Name": "Ann and Chuck Dever Regional Park Rec Center (Indoor)",
        "Location": "6961 San Casa Dr, Englewood, FL 34224, USA",
        "Court Type": "4 indoor Courts",
        "Access": "Membership",
        "Lighting": "No Lighting",
        "Court Purpose": "Court Type Other",
        "Latitude": 26.921823,
        "Longitude": -82.312963
    },
    {
        "SN": 127,
        "Name": "Ann and Chuck Dever Regional Park Rec Center (Outdoor)",
        "Location": "6791 San Casa Dr, Englewood, FL 34224, USA",
        "Court Type": "8 outdoor Courts",
        "Access": "Free Access",
        "Lighting": "No Lighting",
        "Court Purpose": "Tennis Courts",
        "Latitude": 26.924006,
        "Longitude": -82.313116
    },
    {
        "SN": 128,
        "Name": "Anthony Recreation Center",
        "Location": "2415 Browning Avenue, Manhattan, KS, USA",
        "Court Type": "8 indoor Courts",
        "Access": "Free Access",
        "Lighting": "Has Lighting",
        "Court Purpose": "Dedicated Pickleball Courts",
        "Latitude": 39.21170685,
        "Longitude": -96.60942645355274
    },
    {
        "SN": 129,
        "Name": "Antigo High School Courts",
        "Location": "1815 10th Ave, Antigo, WI 54409, USA",
        "Court Type": "4 outdoor Courts",
        "Access": "Free Access",
        "Lighting": "Has Lighting",
        "Court Purpose": "Tennis Courts",
        "Latitude": 45.13296216778524,
        "Longitude": -89.1722995771812
    },
    {
        "SN": 130,
        "Name": "Antoine Park",
        "Location": "35 E Norport Dr, Port Washington, WI 53074, USA",
        "Court Type": "3 outdoor Courts",
        "Access": "Free Access",
        "Lighting": "No Lighting",
        "Court Purpose": "Tennis Courts",
        "Latitude": 43.4061754,
        "Longitude": -87.8610369
    },
    {
        "SN": 131,
        "Name": "Anza Trail Park",
        "Location": "15490 S Rancho Sahuarita Blvd, Sahuarita, AZ 85629",
        "Court Type": "5 outdoor Courts",
        "Access": "Free Access",
        "Lighting": "No Lighting",
        "Court Purpose": "Dedicated Pickleball Courts",
        "Latitude": 31.959071391329836,
        "Longitude": -110.98332545193887
    },
    {
        "SN": 132,
        "Name": "Apache Junction Multi-Generational Center",
        "Location": "1035 N Idaho Rd, Apache Junction, AZ 85119, USA",
        "Court Type": "4 indoor Courts",
        "Access": "Membership",
        "Lighting": "Has Lighting",
        "Court Purpose": "Dedicated Pickleball Courts",
        "Latitude": 33.42389063713175,
        "Longitude": -111.54600319375254
    },
    {
        "SN": 133,
        "Name": "Apartment complex at valley forge",
        "Location": "3000 W Valley Forge Cir # 441, King of Prussia, PA 19406, USA",
        "Court Type": "2 outdoor Courts",
        "Access": "Free Access",
        "Lighting": "No Lighting",
        "Court Purpose": "Dedicated Pickleball Courts",
        "Latitude": 40.1045807,
        "Longitude": -75.4125098
    },
    {
        "SN": 134,
        "Name": "Apartment Courts",
        "Location": "N 500 E St, American Fork, UT 84003, USA",
        "Court Type": "4 outdoor Courts",
        "Access": "Free Access",
        "Lighting": "No Lighting",
        "Court Purpose": "Dedicated Pickleball Courts",
        "Latitude": 40.38662963522672,
        "Longitude": -111.7887129359669
    },
    {
        "SN": 135,
        "Name": "APBIS",
        "Location": "Andover, CT, USA",
        "Court Type": "1 outdoor Courts",
        "Access": "Free Access",
        "Lighting": "No Lighting",
        "Court Purpose": "Dedicated Pickleball Courts",
        "Latitude": 41.7373212,
        "Longitude": -72.37036
    },
    {
        "SN": 136,
        "Name": "Apex Center",
        "Location": "13150 W 72nd Ave, Arvada, CO 80005, USA",
        "Court Type": "4 outdoor Courts",
        "Access": "Membership",
        "Lighting": "No Lighting",
        "Court Purpose": "Dedicated Pickleball Courts",
        "Latitude": 39.827079100000006,
        "Longitude": -105.135622
    },
    {
        "SN": 137,
        "Name": "Apex elementary",
        "Location": "700 Tingen Road, Apex, NC, USA",
        "Court Type": "4 outdoor Courts",
        "Access": "Free Access",
        "Lighting": "Has Lighting",
        "Court Purpose": "Dedicated Pickleball Courts",
        "Latitude": 35.721056,
        "Longitude": -78.855958
    },
    {
        "SN": 138,
        "Name": "Apex Nature Park",
        "Location": "2600 Evans Rd,Apex,NC 27502",
        "Court Type": "3 outdoor Courts",
        "Access": "Free Access",
        "Lighting": "Has Lighting",
        "Court Purpose": "Tennis Courts",
        "Latitude": 35.713175,
        "Longitude": -78.905777
    },
    {
        "SN": 139,
        "Name": "Apex Pickleball Courts",
        "Location": "11706 W 82nd Ave, Arvada, CO 80005, USA",
        "Court Type": "26 outdoor Courts",
        "Access": "Free Access",
        "Lighting": "Has Lighting",
        "Court Purpose": "Dedicated Pickleball Courts",
        "Latitude": 39.84524855,
        "Longitude": -105.13050821619393
    },
    {
        "SN": 140,
        "Name": "Apodaca Park",
        "Location": "801 E Madrid Ave, Las Cruces, NM 88001, USA",
        "Court Type": "8 outdoor Courts",
        "Access": "Free Access",
        "Lighting": "No Lighting",
        "Court Purpose": "Dedicated Pickleball Courts",
        "Latitude": 32.32831,
        "Longitude": -106.777948
    },
    {
        "SN": 141,
        "Name": "Apodaca Park",
        "Location": "Las Cruces, Las Cruces, NM 88001",
        "Court Type": "8 outdoor Courts",
        "Access": "Free Access",
        "Lighting": "No Lighting",
        "Court Purpose": "Dedicated Pickleball Courts",
        "Latitude": 32.292619,
        "Longitude": -106.76418
    },
    {
        "SN": 142,
        "Name": "Apollo Beach Park and Recreational Center",
        "Location": "664 Golf and Sea Blvd, Apollo Beach, FL 33572, USA",
        "Court Type": "2 outdoor Courts",
        "Access": "Free Access",
        "Lighting": "No Lighting",
        "Court Purpose": "Tennis Courts",
        "Latitude": 27.7653398,
        "Longitude": -82.4106763
    },
    {
        "SN": 143,
        "Name": "Apple Ridge Recreation Area",
        "Location": "10101 Apple Ridge Rd, Montgomery Village, MD 20886, USA",
        "Court Type": "4 outdoor Courts",
        "Access": "Free Access",
        "Lighting": "No Lighting",
        "Court Purpose": "Dedicated Pickleball Courts",
        "Latitude": 39.18587935,
        "Longitude": -77.20823558384862
    },
    {
        "SN": 144,
        "Name": "Apple Valley Community Center",
        "Location": "175 Strese Ln, Apple Valley, MN 55124",
        "Court Type": "6 outdoor Courts",
        "Access": "Membership",
        "Lighting": "No Lighting",
        "Court Purpose": "Dedicated Pickleball Courts",
        "Latitude": 44.735190821290026,
        "Longitude": -93.23532877401534
    },
    {
        "SN": 145,
        "Name": "April Sound Country Club",
        "Location": "1000 April Sound Blvd, Montgomery, TX 77356, USA",
        "Court Type": "12 outdoor Courts",
        "Access": "Membership",
        "Lighting": "No Lighting",
        "Court Purpose": "Tennis Courts",
        "Latitude": 30.367442699999998,
        "Longitude": -95.60190934467272
    },
    {
        "SN": 146,
        "Name": "APTC at Queens College",
        "Location": "65-30 Kissena Blvd, Queens, NY 11367, USA",
        "Court Type": "6 indoor Courts",
        "Access": "Membership",
        "Lighting": "Has Lighting",
        "Court Purpose": "Tennis Courts",
        "Latitude": 40.7345131,
        "Longitude": -73.815764
    },
    {
        "SN": 147,
        "Name": "Aquadic Center",
        "Location": "7501 Coronado Dr, McKinney, TX 75070, USA",
        "Court Type": "3 outdoor Courts",
        "Access": "Free Access",
        "Lighting": "No Lighting",
        "Court Purpose": "Dedicated Pickleball Courts",
        "Latitude": 33.1837257,
        "Longitude": -96.71666438464219
    },
    {
        "SN": 148,
        "Name": "Aquatic Center Sport Courts",
        "Location": "778 N Main St, Florence, AZ 85132",
        "Court Type": "2 outdoor Courts",
        "Access": "Membership",
        "Lighting": "Has Lighting",
        "Court Purpose": "Dedicated Pickleball Courts",
        "Latitude": 33.039035,
        "Longitude": -111.3881177
    },
    {
        "SN": 149,
        "Name": "Arbor View Park",
        "Location": "4401 Arbor View Dr, Lisle, IL 60532, USA",
        "Court Type": "1 outdoor Courts",
        "Access": "Free Access",
        "Lighting": "No Lighting",
        "Court Purpose": "Tennis Courts",
        "Latitude": 41.805671,
        "Longitude": -88.064549
    },
    {
        "SN": 150,
        "Name": "Arbuckle Park",
        "Location": "2671 E Le Grand Loop, Chandler, AZ 85286, USA",
        "Court Type": "1 outdoor Courts",
        "Access": "Free Access",
        "Lighting": "Has Lighting",
        "Court Purpose": "Dedicated Pickleball Courts",
        "Latitude": 32.933135,
        "Longitude": -111.722674
    },
    {
        "SN": 151,
        "Name": "Arcadia County Park",
        "Location": "405 S Santa Anita Ave, Arcadia, CA 91006, USA",
        "Court Type": "8 outdoor Courts",
        "Access": "Free Access",
        "Lighting": "Has Lighting",
        "Court Purpose": "Dedicated Pickleball Courts",
        "Latitude": 34.1306193,
        "Longitude": -118.0313413
    },
    {
        "SN": 152,
        "Name": "Archie H. Gubler Park",
        "Location": "2375 Rachel Dr, Santa Clara, UT 84765",
        "Court Type": "6 outdoor Courts",
        "Access": "Free Access",
        "Lighting": "No Lighting",
        "Court Purpose": "Dedicated Pickleball Courts",
        "Latitude": 37.153426165945554,
        "Longitude": -113.66258115065524
    },
    {
        "SN": 153,
        "Name": "Argyle Forest Park",
        "Location": "8533 Acanthus Dr, Jacksonville, FL 32244, USA",
        "Court Type": "12 outdoor Courts",
        "Access": "Free Access",
        "Lighting": "No Lighting",
        "Court Purpose": "Dedicated Pickleball Courts",
        "Latitude": 30.191977858667297,
        "Longitude": -81.75624742159845
    },
    {
        "SN": 154,
        "Name": "Arivaca Community Center",
        "Location": "36120 Mesquite Rd, Arivaca, AZ 85601",
        "Court Type": "3 outdoor Courts",
        "Access": "Membership",
        "Lighting": "Has Lighting",
        "Court Purpose": "Dedicated Pickleball Courts",
        "Latitude": 31.594145,
        "Longitude": -111.304988
    },
    {
        "SN": 155,
        "Name": "Arizona Biltmore",
        "Location": "2400 E Missouri Ave, Phoenix, AZ 85016, USA",
        "Court Type": "4 outdoor Courts",
        "Access": "Membership",
        "Lighting": "No Lighting",
        "Court Purpose": "Dedicated Pickleball Courts",
        "Latitude": 33.51758305,
        "Longitude": -112.02144057607651
    },
    {
        "SN": 156,
        "Name": "Arizona Traditions",
        "Location": "17221 N Citrus Rd, Surprise, AZ 85374, USA",
        "Court Type": "6 outdoor Courts",
        "Access": "Membership",
        "Lighting": "Has Lighting",
        "Court Purpose": "Dedicated Pickleball Courts",
        "Latitude": 33.6409345,
        "Longitude": -112.44351751483454
    },
    {
        "SN": 157,
        "Name": "Arlington Arkwright Park",
        "Location": "400 Arlington Ave E, St Paul, MN 55130, USA",
        "Court Type": "1 outdoor Courts",
        "Access": "Free Access",
        "Lighting": "No Lighting",
        "Court Purpose": "Tennis Courts",
        "Latitude": 44.984516,
        "Longitude": -93.081016
    },
    {
        "SN": 158,
        "Name": "Arlington First Baptist Church",
        "Location": "301 S Center St, Arlington, TX 76010",
        "Court Type": "3 indoor Courts",
        "Access": "Free Access",
        "Lighting": "Has Lighting",
        "Court Purpose": "Tennis Courts",
        "Latitude": 32.734805,
        "Longitude": -97.107068
    },
    {
        "SN": 159,
        "Name": "Arlington Hills Community Center",
        "Location": "1200 Payne Ave, St Paul, MN 55130, USA",
        "Court Type": "3 indoor Courts",
        "Access": "Membership",
        "Lighting": "No Lighting",
        "Court Purpose": "Dedicated Pickleball Courts",
        "Latitude": 44.977129149999996,
        "Longitude": -93.07291772824888
    },
    {
        "SN": 160,
        "Name": "Arlington Tennis Center",
        "Location": "500 W Mayfield Rd, Arlington, TX 76014, USA",
        "Court Type": "10 outdoor Courts",
        "Access": "Membership",
        "Lighting": "Has Lighting",
        "Court Purpose": "Dedicated Pickleball Courts",
        "Latitude": 32.690915,
        "Longitude": -97.111239
    },
    {
        "SN": 161,
        "Name": "Armstrong Park",
        "Location": "305 E Pkwy Ave, High Point, NC 27262, USA",
        "Court Type": "4 outdoor Courts",
        "Access": "Free Access",
        "Lighting": "No Lighting",
        "Court Purpose": "Dedicated Pickleball Courts",
        "Latitude": 35.967146,
        "Longitude": -80.016369
    },
    {
        "SN": 162,
        "Name": "Armstrong Park",
        "Location": "520 E Farris Ave,High Point,NC 27262",
        "Court Type": "4 outdoor Courts",
        "Access": "Free Access",
        "Lighting": "No Lighting",
        "Court Purpose": "Dedicated Pickleball Courts",
        "Latitude": 35.972047,
        "Longitude": -80.008157
    },
    {
        "SN": 163,
        "Name": "Armstrong Tennis Center",
        "Location": "60 Mecaw Rd, Hampden, ME 04444, USA",
        "Court Type": "8 indoor Courts",
        "Access": "Membership",
        "Lighting": "Has Lighting",
        "Court Purpose": "Dedicated Pickleball Courts",
        "Latitude": 44.7819133,
        "Longitude": -68.7981071
    },
    {
        "SN": 164,
        "Name": "Arnold Cypress Park",
        "Location": "8611 Watson St, Cypress, CA 90630",
        "Court Type": "6 outdoor Courts",
        "Access": "Free Access",
        "Lighting": "Has Lighting",
        "Court Purpose": "Dedicated Pickleball Courts",
        "Latitude": 33.837151217948715,
        "Longitude": -118.0393543974359
    },
    {
        "SN": 165,
        "Name": "ArrowCreek Community: private",
        "Location": "2900 Arrowcreek Pkwy, Reno, NV 89511",
        "Court Type": "4 outdoor Courts",
        "Access": "Membership",
        "Lighting": "No Lighting",
        "Court Purpose": "Dedicated Pickleball Courts",
        "Latitude": 39.41365125,
        "Longitude": -119.80661536802421
    },
    {
        "SN": 166,
        "Name": "Arrowhead Meadows Park",
        "Location": "1475 W Erie St, Chandler, AZ 85224",
        "Court Type": "6 outdoor Courts",
        "Access": "Free Access",
        "Lighting": "Has Lighting",
        "Court Purpose": "Dedicated Pickleball Courts",
        "Latitude": 33.309680942240625,
        "Longitude": -111.86366166161105
    },
    {
        "SN": 167,
        "Name": "Arroyo Seco Courts",
        "Location": "920 Lohman Ln, South Pasadena, CA 91030, USA",
        "Court Type": "2 outdoor Courts",
        "Access": "Membership",
        "Lighting": "Has Lighting",
        "Court Purpose": "Dedicated Pickleball Courts",
        "Latitude": 34.11695203034466,
        "Longitude": -118.16784562946155
    },
    {
        "SN": 168,
        "Name": "Arroyo Vista",
        "Location": "4550 Tierra Rejada Rd, Moorpark, CA 93021, USA",
        "Court Type": "8 outdoor Courts",
        "Access": "Free Access",
        "Lighting": "Has Lighting",
        "Court Purpose": "Tennis Courts",
        "Latitude": 34.262203580131015,
        "Longitude": -118.86782442121016
    },
    {
        "SN": 169,
        "Name": "Art Dye Park",
        "Location": "980 N 500 E St, American Fork, UT 84003, USA",
        "Court Type": "6 outdoor Courts",
        "Access": "Free Access",
        "Lighting": "Has Lighting",
        "Court Purpose": "Dedicated Pickleball Courts",
        "Latitude": 40.39397,
        "Longitude": -111.810668
    },
    {
        "SN": 170,
        "Name": "Arthur Capper Recreation Center",
        "Location": "1000 5th St SE, Washington, DC 20003, USA",
        "Court Type": "1 unknown Courts",
        "Access": "Free Access",
        "Lighting": "No Lighting",
        "Court Purpose": "Dedicated Pickleball Courts",
        "Latitude": 38.878406,
        "Longitude": -76.999518
    },
    {
        "SN": 171,
        "Name": "Arthur Capper Recreation Center",
        "Location": "1000 5th St SE, Washington, DC 20003, USA",
        "Court Type": "3 indoor Courts",
        "Access": "Membership",
        "Lighting": "Has Lighting",
        "Court Purpose": "Dedicated Pickleball Courts",
        "Latitude": 38.878406,
        "Longitude": -76.999518
    },
    {
        "SN": 172,
        "Name": "Arvesta Sport Complex",
        "Location": "South Haven, MI 49090, USA",
        "Court Type": "14 both Courts",
        "Access": "Membership",
        "Lighting": "No Lighting",
        "Court Purpose": "Dedicated Pickleball Courts",
        "Latitude": 42.4030865,
        "Longitude": -86.2736407
    },
    {
        "SN": 173,
        "Name": "Ascarate Park",
        "Location": "6900 Delta Dr, El Paso, TX 79905, USA",
        "Court Type": "4 outdoor Courts",
        "Access": "Free Access",
        "Lighting": "No Lighting",
        "Court Purpose": "Dedicated Pickleball Courts",
        "Latitude": 31.765503,
        "Longitude": -106.453847
    },
    {
        "SN": 174,
        "Name": "Ascension Genesys Health Club",
        "Location": "801 Health Park Blvd, Grand Blanc, MI 48439, USA",
        "Court Type": "6 indoor Courts",
        "Access": "Membership",
        "Lighting": "No Lighting",
        "Court Purpose": "Dedicated Pickleball Courts",
        "Latitude": 42.8903581,
        "Longitude": -83.63565106625931
    },
    {
        "SN": 175,
        "Name": "Ascent Pickleball",
        "Location": "2658 Ellwood Rd, New Castle, PA 16101",
        "Court Type": "6 indoor Courts",
        "Access": "Membership",
        "Lighting": "Has Lighting",
        "Court Purpose": "Dedicated Pickleball Courts",
        "Latitude": 40.96963009311339,
        "Longitude": -80.31266084737854
    },
    {
        "SN": 176,
        "Name": "Ashby park",
        "Location": "3200 38th St, Des Moines, IA 50310, USA",
        "Court Type": "2 outdoor Courts",
        "Access": "Free Access",
        "Lighting": "No Lighting",
        "Court Purpose": "Tennis Courts",
        "Latitude": 41.624178,
        "Longitude": -93.668426
    },
    {
        "SN": 177,
        "Name": "Asher F",
        "Location": "Doylestown, PA 18901, USA",
        "Court Type": "1 outdoor Courts",
        "Access": "Free Access",
        "Lighting": "No Lighting",
        "Court Purpose": "Dedicated Pickleball Courts",
        "Latitude": 40.3100446,
        "Longitude": -75.1304588
    },
    {
        "SN": 178,
        "Name": "Asher Trace Park",
        "Location": "1009 Baxter Ln, Gallatin, TN 37066, USA",
        "Court Type": "2 outdoor Courts",
        "Access": "Free Access",
        "Lighting": "No Lighting",
        "Court Purpose": "Dedicated Pickleball Courts",
        "Latitude": 36.35215898387356,
        "Longitude": -86.50263039113045
    },
    {
        "SN": 179,
        "Name": "Ashford Park Tennis Courts",
        "Location": "3021 Caldwell Rd NE, Atlanta, GA 30319, USA",
        "Court Type": "2 outdoor Courts",
        "Access": "Free Access",
        "Lighting": "Has Lighting",
        "Court Purpose": "Tennis Courts",
        "Latitude": 33.874652,
        "Longitude": -84.326129
    },
    {
        "SN": 180,
        "Name": "Ashley River Baptist Church",
        "Location": "1101 Savannah Hwy, Charleston, SC 29407, USA",
        "Court Type": "5 outdoor Courts",
        "Access": "Free Access",
        "Lighting": "No Lighting",
        "Court Purpose": "Dedicated Pickleball Courts",
        "Latitude": 32.783119,
        "Longitude": -79.992483
    },
    {
        "SN": 181,
        "Name": "ASI Community Center & Park",
        "Location": "102 South Maple St, Bellaire, MI 49615",
        "Court Type": "1 outdoor Courts",
        "Access": "Free Access",
        "Lighting": "No Lighting",
        "Court Purpose": "Dedicated Pickleball Courts",
        "Latitude": 44.975465,
        "Longitude": -85.204952
    },
    {
        "SN": 182,
        "Name": "Asing Community Park",
        "Location": "91-1450 Renton Rd, Ewa Beach, HI 96706",
        "Court Type": "4 outdoor Courts",
        "Access": "Free Access",
        "Lighting": "No Lighting",
        "Court Purpose": "Tennis Courts",
        "Latitude": 21.349312,
        "Longitude": -158.025415
    },
    {
        "SN": 183,
        "Name": "Aspenwood Avenue",
        "Location": "6705 Sycamore Woods Dr, Louisville, KY 40241, USA",
        "Court Type": "2 outdoor Courts",
        "Access": "Free Access",
        "Lighting": "No Lighting",
        "Court Purpose": "Dedicated Pickleball Courts",
        "Latitude": 38.29135345,
        "Longitude": -85.62283124158228
    },
    {
        "SN": 184,
        "Name": "Assembly Park",
        "Location": "118 Mildred Ave, Iowa Falls, IA 50126, USA",
        "Court Type": "3 outdoor Courts",
        "Access": "Free Access",
        "Lighting": "No Lighting",
        "Court Purpose": "Dedicated Pickleball Courts",
        "Latitude": 42.52185555944248,
        "Longitude": -93.27280844760234
    },
    {
        "SN": 185,
        "Name": "Assembly Union Park",
        "Location": "875 Mount Curve Blvd, St Paul, MN 55116, USA",
        "Court Type": "3 outdoor Courts",
        "Access": "Free Access",
        "Lighting": "Has Lighting",
        "Court Purpose": "Dedicated Pickleball Courts",
        "Latitude": 44.92886649993267,
        "Longitude": -93.19359851556494
    },
    {
        "SN": 186,
        "Name": "Aston Kaanapali Shores",
        "Location": "3445 Lower Honoapiilani Rd, Lahaina, HI 96761",
        "Court Type": "1 outdoor Courts",
        "Access": "Free Access",
        "Lighting": "No Lighting",
        "Court Purpose": "Dedicated Pickleball Courts",
        "Latitude": 20.9493759,
        "Longitude": -156.689551
    },
    {
        "SN": 187,
        "Name": "Athletic Field Park",
        "Location": "3546 W Addison St, Chicago, IL 60618, USA",
        "Court Type": "2 outdoor Courts",
        "Access": "Free Access",
        "Lighting": "No Lighting",
        "Court Purpose": "Court Type Other",
        "Latitude": 41.9467196,
        "Longitude": -87.71700694694292
    },
    {
        "SN": 188,
        "Name": "Atholton Park Courts",
        "Location": "10206 Donleigh Dr, Columbia, MD 21046, USA",
        "Court Type": "2 outdoor Courts",
        "Access": "Free Access",
        "Lighting": "No Lighting",
        "Court Purpose": "Dedicated Pickleball Courts",
        "Latitude": 39.1847621,
        "Longitude": -76.8661115
    },
    {
        "SN": 189,
        "Name": "Atkinson Park",
        "Location": "James G. Atkinson Memorial Park, Bethel Mill Road, Sewell, NJ, USA",
        "Court Type": "6 outdoor Courts",
        "Access": "Free Access",
        "Lighting": "Has Lighting",
        "Court Purpose": "Dedicated Pickleball Courts",
        "Latitude": 39.995154,
        "Longitude": -82.673208
    },
    {
        "SN": 190,
        "Name": "Atlanta Pickleball Center",
        "Location": "1359 Ellsworth Industrial Blvd NW, Atlanta, GA 30318, USA",
        "Court Type": "10 indoor Courts",
        "Access": "Membership",
        "Lighting": "Has Lighting",
        "Court Purpose": "Dedicated Pickleball Courts",
        "Latitude": 33.79213019053165,
        "Longitude": -84.4268501042745
    },
    {
        "SN": 191,
        "Name": "ATTCC (affectionately called Attack)",
        "Location": "2828 Madison Avenue, Anderson, IN, USA",
        "Court Type": "6 indoor Courts",
        "Access": "Membership",
        "Lighting": "Has Lighting",
        "Court Purpose": "Dedicated Pickleball Courts",
        "Latitude": 40.088040424808156,
        "Longitude": -85.69185707715916
    },
    {
        "SN": 192,
        "Name": "Atten Park",
        "Location": "1720 Wiesbrook Rd S, Wheaton, IL 60189, USA",
        "Court Type": "2 outdoor Courts",
        "Access": "Free Access",
        "Lighting": "No Lighting",
        "Court Purpose": "Dedicated Pickleball Courts",
        "Latitude": 41.83652973706102,
        "Longitude": -88.14510108857736
    },
    {
        "SN": 193,
        "Name": "Atwater Elementary School",
        "Location": "2100 E Capitol Dr, Shorewood, WI 53211, USA",
        "Court Type": "4 outdoor Courts",
        "Access": "Free Access",
        "Lighting": "No Lighting",
        "Court Purpose": "Tennis Courts",
        "Latitude": 43.0900398,
        "Longitude": -87.88377027445173
    },
    {
        "SN": 194,
        "Name": "Auburn Racquet and Fitness Club",
        "Location": "1255 Racquet Club Dr, Auburn, CA 95603, USA",
        "Court Type": "4 outdoor Courts",
        "Access": "Membership",
        "Lighting": "No Lighting",
        "Court Purpose": "Dedicated Pickleball Courts",
        "Latitude": 38.928829750000006,
        "Longitude": -121.07109439004347
    },
    {
        "SN": 195,
        "Name": "Auburn Regional Park",
        "Location": "3770 Richardson Dr, Auburn, CA 95603",
        "Court Type": "6 outdoor Courts",
        "Access": "Free Access",
        "Lighting": "Has Lighting",
        "Court Purpose": "Dedicated Pickleball Courts",
        "Latitude": 38.943284,
        "Longitude": -121.10805
    },
    {
        "SN": 196,
        "Name": "Auburn Valley YMCA",
        "Location": "1620 Perimeter Rd, Auburn, WA 98001, USA",
        "Court Type": "1 indoor Courts",
        "Access": "Membership",
        "Lighting": "Has Lighting",
        "Court Purpose": "Dedicated Pickleball Courts",
        "Latitude": 47.2934555,
        "Longitude": -122.23872211471478
    },
    {
        "SN": 197,
        "Name": "Auburn Village",
        "Location": "Raleigh, NC, USA",
        "Court Type": "3 outdoor Courts",
        "Access": "Free Access",
        "Lighting": "No Lighting",
        "Court Purpose": "Dedicated Pickleball Courts",
        "Latitude": 35.7803977,
        "Longitude": -78.6390989
    },
    {
        "SN": 198,
        "Name": "Augusta First Seventh Day Adventist Church",
        "Location": "4301 Wheeler Rd, Martinez, GA 30907, USA",
        "Court Type": "3 outdoor Courts",
        "Access": "Free Access",
        "Lighting": "No Lighting",
        "Court Purpose": "Court Type Other",
        "Latitude": 33.4884027,
        "Longitude": -82.10818055
    },
    {
        "SN": 199,
        "Name": "Augustus playground",
        "Location": "328 2nd Ave, New York, NY 10003, USA",
        "Court Type": "1 outdoor Courts",
        "Access": "Free Access",
        "Lighting": "No Lighting",
        "Court Purpose": "Court Type Other",
        "Latitude": 40.7479625,
        "Longitude": -73.05291001559928
    },
    {
        "SN": 200,
        "Name": "AUM Wellness Center",
        "Location": "7420 Aum Dr, Montgomery, AL 36116, USA",
        "Court Type": "3 indoor Courts",
        "Access": "Membership",
        "Lighting": "Has Lighting",
        "Court Purpose": "Dedicated Pickleball Courts",
        "Latitude": 32.349145,
        "Longitude": -86.248217
    },
    {
        "SN": 201,
        "Name": "Aumiller Park",
        "Location": "500 Aumiller Park Dr, Bucyrus, OH 44820, USA",
        "Court Type": "4 outdoor Courts",
        "Access": "Free Access",
        "Lighting": "No Lighting",
        "Court Purpose": "Dedicated Pickleball Courts",
        "Latitude": 40.80614777447428,
        "Longitude": -82.99153281297832
    },
    {
        "SN": 202,
        "Name": "Austin Park",
        "Location": "1345 S Broadway, Montgomery, IL 60538, USA",
        "Court Type": "2 outdoor Courts",
        "Access": "Free Access",
        "Lighting": "No Lighting",
        "Court Purpose": "Tennis Courts",
        "Latitude": 41.74115753000576,
        "Longitude": -88.32807269242426
    },
    {
        "SN": 203,
        "Name": "Austin Street Playground",
        "Location": "111 76th Dr, Forest Hills, NY 11375, USA",
        "Court Type": "1 outdoor Courts",
        "Access": "Free Access",
        "Lighting": "No Lighting",
        "Court Purpose": "Tennis Courts",
        "Latitude": 40.71625485,
        "Longitude": -73.83510017716301
    },
    {
        "SN": 204,
        "Name": "Austintown township park",
        "Location": "6258 Kirk Rd, Canfield, OH 44406, USA",
        "Court Type": "4 outdoor Courts",
        "Access": "Free Access",
        "Lighting": "No Lighting",
        "Court Purpose": "Dedicated Pickleball Courts",
        "Latitude": 41.068907,
        "Longitude": -80.778521
    },
    {
        "SN": 205,
        "Name": "Autrey Park",
        "Location": "1830 Honey Creek Dr, Superior, CO 80027, USA",
        "Court Type": "6 outdoor Courts",
        "Access": "Free Access",
        "Lighting": "No Lighting",
        "Court Purpose": "Dedicated Pickleball Courts",
        "Latitude": 39.941134,
        "Longitude": -105.156542
    },
    {
        "SN": 206,
        "Name": "Autumnwood Pickleball",
        "Location": "11950 N Walnut Branch Rd, Reston, VA 20194, USA",
        "Court Type": "8 outdoor Courts",
        "Access": "Membership",
        "Lighting": "Has Lighting",
        "Court Purpose": "Dedicated Pickleball Courts",
        "Latitude": 38.974907,
        "Longitude": -77.362271
    },
    {
        "SN": 207,
        "Name": "Avalon Park",
        "Location": "13401 Tanja King Blvd, Orlando, FL 32828, USA",
        "Court Type": "10 outdoor Courts",
        "Access": "Membership",
        "Lighting": "No Lighting",
        "Court Purpose": "Dedicated Pickleball Courts",
        "Latitude": 28.512844,
        "Longitude": -81.162436
    },
    {
        "SN": 208,
        "Name": "Avalon Park in Shenandoah",
        "Location": "8585 Grogans Mill Rd, Spring, TX 77381, USA",
        "Court Type": "2 outdoor Courts",
        "Access": "Membership",
        "Lighting": "No Lighting",
        "Court Purpose": "Tennis Courts",
        "Latitude": 30.17065,
        "Longitude": -95.465109
    },
    {
        "SN": 209,
        "Name": "Avalon Park south village clubhouse",
        "Location": "4033 Cleary Way, Orlando, FL 32828, USA",
        "Court Type": "2 outdoor Courts",
        "Access": "Free Access",
        "Lighting": "Has Lighting",
        "Court Purpose": "Tennis Courts",
        "Latitude": 28.502418,
        "Longitude": -81.145612
    },
    {
        "SN": 210,
        "Name": "Aviator Sports and Events Center",
        "Location": "3159 Flatbush Ave, Brooklyn, NY 11234, USA",
        "Court Type": "4 indoor Courts",
        "Access": "Free Access",
        "Lighting": "Has Lighting",
        "Court Purpose": "Dedicated Pickleball Courts",
        "Latitude": 40.58960555,
        "Longitude": -73.89905609156767
    },
    {
        "SN": 211,
        "Name": "Avon High School",
        "Location": "37545 Detroit Rd, Avon, OH 44011, USA",
        "Court Type": "6 outdoor Courts",
        "Access": "Free Access",
        "Lighting": "Has Lighting",
        "Court Purpose": "Dedicated Pickleball Courts",
        "Latitude": 41.4452408,
        "Longitude": -82.03924875172069
    },
    {
        "SN": 212,
        "Name": "Avondale estates",
        "Location": "51 Dartmouth Ave, Avondale Estates, GA 30002, USA",
        "Court Type": "2 outdoor Courts",
        "Access": "Free Access",
        "Lighting": "No Lighting",
        "Court Purpose": "Dedicated Pickleball Courts",
        "Latitude": 33.76958719459428,
        "Longitude": -84.26902861268377
    },
    {
        "SN": 213,
        "Name": "Avondale Park District",
        "Location": "3516 W School St, Chicago, IL 60618, USA",
        "Court Type": "2 indoor Courts",
        "Access": "Free Access",
        "Lighting": "Has Lighting",
        "Court Purpose": "Dedicated Pickleball Courts",
        "Latitude": 41.9412692,
        "Longitude": -87.71526209789735
    },
    {
        "SN": 214,
        "Name": "Ayers Park",
        "Location": "Between, GA, USA",
        "Court Type": "4 outdoor Courts",
        "Access": "Free Access",
        "Lighting": "No Lighting",
        "Court Purpose": "Dedicated Pickleball Courts",
        "Latitude": 33.8176114,
        "Longitude": -83.8074003
    },
    {
        "SN": 215,
        "Name": "Azle Central Park Pickleball Court",
        "Location": "263 W Main St, Azle, TX 76020, USA",
        "Court Type": "1 outdoor Courts",
        "Access": "Free Access",
        "Lighting": "No Lighting",
        "Court Purpose": "Dedicated Pickleball Courts",
        "Latitude": 32.8981195,
        "Longitude": -97.5478779
    },
    {
        "SN": 216,
        "Name": "Aztec RV Resort",
        "Location": "1, Aztec Blvd, Margate, FL 33068, USA",
        "Court Type": "8 outdoor Courts",
        "Access": "Free Access",
        "Lighting": "Has Lighting",
        "Court Purpose": "Dedicated Pickleball Courts",
        "Latitude": 26.225928,
        "Longitude": -80.204246
    },
    {
        "SN": 217,
        "Name": "B&PW PARK PICKLEBALL COURTS",
        "Location": "145 Lux Rd, Sealy, TX 77474, USA",
        "Court Type": "8 outdoor Courts",
        "Access": "Free Access",
        "Lighting": "Has Lighting",
        "Court Purpose": "Dedicated Pickleball Courts",
        "Latitude": 29.780458,
        "Longitude": -96.168254
    },
    {
        "SN": 218,
        "Name": "Babe James Community Center",
        "Location": "201 N Myrtle Ave, New Smyrna Beach, FL 32168, USA",
        "Court Type": "2 indoor Courts",
        "Access": "Free Access",
        "Lighting": "No Lighting",
        "Court Purpose": "Dedicated Pickleball Courts",
        "Latitude": 29.023526,
        "Longitude": -80.930724
    },
    {
        "SN": 219,
        "Name": "Babette Horenstein Tennis Center - Bubble",
        "Location": "15707 SW Walker Rd,Beaverton,OR 97006",
        "Court Type": "8 outdoor Courts",
        "Access": "Membership",
        "Lighting": "Has Lighting",
        "Court Purpose": "Dedicated Pickleball Courts",
        "Latitude": 45.5203719,
        "Longitude": -122.8391236
    },
    {
        "SN": 220,
        "Name": "Bacall Pool & Recreation Center",
        "Location": "2041 Canal St, The Villages, FL 32162",
        "Court Type": "6 outdoor Courts",
        "Access": "Membership",
        "Lighting": "No Lighting",
        "Court Purpose": "Dedicated Pickleball Courts",
        "Latitude": 28.8839449,
        "Longitude": -81.9726559
    },
    {
        "SN": 221,
        "Name": "Back creek park",
        "Location": "3000 Goodwin Neck Rd, Yorktown, VA 23692, USA",
        "Court Type": "6 outdoor Courts",
        "Access": "Free Access",
        "Lighting": "No Lighting",
        "Court Purpose": "Dedicated Pickleball Courts",
        "Latitude": 37.206901,
        "Longitude": -76.442819
    },
    {
        "SN": 222,
        "Name": "Backyard Pickleball",
        "Location": "West Washburn Road, Las Vegas, NV 89149, USA",
        "Court Type": "2 outdoor Courts",
        "Access": "Free Access",
        "Lighting": "Has Lighting",
        "Court Purpose": "Dedicated Pickleball Courts",
        "Latitude": 36.255507416726054,
        "Longitude": -115.30180500502847
    },
    {
        "SN": 223,
        "Name": "Bacon\u2019s Castle Baptist Church",
        "Location": "86 Bacons Castle Trail, Surry, VA 23883, USA",
        "Court Type": "2 indoor Courts",
        "Access": "Free Access",
        "Lighting": "Has Lighting",
        "Court Purpose": "Dedicated Pickleball Courts",
        "Latitude": 37.1054971,
        "Longitude": -76.72828982742607
    },
    {
        "SN": 224,
        "Name": "Bad",
        "Location": "3241 Remington Way, San Jose, CA 95148, USA",
        "Court Type": "100 both Courts",
        "Access": "Free Access",
        "Lighting": "No Lighting",
        "Court Purpose": "Court Type Other",
        "Latitude": 37.3281352,
        "Longitude": -121.78945545616568
    },
    {
        "SN": 225,
        "Name": "Badgerow Park South",
        "Location": "1120 Latta Rd, Rochester, NY 14612, USA",
        "Court Type": "1 outdoor Courts",
        "Access": "Free Access",
        "Lighting": "No Lighting",
        "Court Purpose": "Tennis Courts",
        "Latitude": 43.2555295,
        "Longitude": -77.6412645
    },
    {
        "SN": 226,
        "Name": "Bailey's Glen",
        "Location": "12072 Bailey Rd, Cornelius, NC 28031, USA",
        "Court Type": "5 outdoor Courts",
        "Access": "Membership",
        "Lighting": "No Lighting",
        "Court Purpose": "Dedicated Pickleball Courts",
        "Latitude": 35.458406876983716,
        "Longitude": -80.8674788504782
    },
    {
        "SN": 227,
        "Name": "Baileyville Pickleball Courts",
        "Location": "10 Palm St, Baileyville, ME 04694, USA",
        "Court Type": "3 outdoor Courts",
        "Access": "Free Access",
        "Lighting": "Has Lighting",
        "Court Purpose": "Dedicated Pickleball Courts",
        "Latitude": 45.1507149,
        "Longitude": -67.40431730345182
    },
    {
        "SN": 228,
        "Name": "Bainbridge High School",
        "Location": "9530 High School Rd, Bainbridge Island, WA 98110",
        "Court Type": "2 outdoor Courts",
        "Access": "Free Access",
        "Lighting": "No Lighting",
        "Court Purpose": "Tennis Courts",
        "Latitude": 47.6372414,
        "Longitude": -122.52148399654368
    },
    {
        "SN": 229,
        "Name": "Bainbridge High School Lower Gym",
        "Location": "9330 High School Rd NE, Bainbridge Island, WA 98110, USA",
        "Court Type": "8 both Courts",
        "Access": "Membership",
        "Lighting": "Has Lighting",
        "Court Purpose": "Dedicated Pickleball Courts",
        "Latitude": 47.635856,
        "Longitude": -122.513855
    },
    {
        "SN": 230,
        "Name": "Baird Park",
        "Location": "Baird Park Cir, Lebanon, TN 37087, USA",
        "Court Type": "2 outdoor Courts",
        "Access": "Free Access",
        "Lighting": "Has Lighting",
        "Court Purpose": "Tennis Courts",
        "Latitude": 36.1971024,
        "Longitude": -86.28415068198444
    },
    {
        "SN": 231,
        "Name": "Baker Park",
        "Location": "1434 Morrow Rd,Upper St Clair,PA 15241",
        "Court Type": "4 outdoor Courts",
        "Access": "Free Access",
        "Lighting": "No Lighting",
        "Court Purpose": "Tennis Courts",
        "Latitude": 40.33785,
        "Longitude": -80.097819
    },
    {
        "SN": 232,
        "Name": "Baker Park",
        "Location": "209 Page St W, St Paul, MN 55107, USA",
        "Court Type": "1 outdoor Courts",
        "Access": "Free Access",
        "Lighting": "No Lighting",
        "Court Purpose": "Tennis Courts",
        "Latitude": 44.924634,
        "Longitude": -93.094332
    },
    {
        "SN": 233,
        "Name": "Baker Park",
        "Location": "2000 S Main St, New Castle, IN 47362",
        "Court Type": "3 outdoor Courts",
        "Access": "Free Access",
        "Lighting": "No Lighting",
        "Court Purpose": "Dedicated Pickleball Courts",
        "Latitude": 39.912571,
        "Longitude": -85.370703
    },
    {
        "SN": 234,
        "Name": "Bakersfield Racquet Club",
        "Location": "1660 Pine St, Bakersfield, CA 93301",
        "Court Type": "4 outdoor Courts",
        "Access": "Membership",
        "Lighting": "Has Lighting",
        "Court Purpose": "Dedicated Pickleball Courts",
        "Latitude": 35.37396718367347,
        "Longitude": -119.0315749387755
    },
    {
        "SN": 235,
        "Name": "Bakken Park Pickleball Courts",
        "Location": "244 Grove St, Cottage Grove, WI 53527, USA",
        "Court Type": "8 outdoor Courts",
        "Access": "Free Access",
        "Lighting": "Has Lighting",
        "Court Purpose": "Dedicated Pickleball Courts",
        "Latitude": 43.0744794279789,
        "Longitude": -89.20455405491062
    },
    {
        "SN": 236,
        "Name": "Baldi Middle School",
        "Location": "8801 Veree Rd,Philadelphia,PA 19115",
        "Court Type": "4 outdoor Courts",
        "Access": "Free Access",
        "Lighting": "No Lighting",
        "Court Purpose": "Tennis Courts",
        "Latitude": 40.092993,
        "Longitude": -75.052645
    },
    {
        "SN": 237,
        "Name": "Baldwin Park",
        "Location": "3232 Grand Ave, Baldwin, NY 11510",
        "Court Type": "4 outdoor Courts",
        "Access": "Free Access",
        "Lighting": "Has Lighting",
        "Court Purpose": "Tennis Courts",
        "Latitude": 40.629761,
        "Longitude": -73.613145
    },
    {
        "SN": 238,
        "Name": "Baldwin Park",
        "Location": "West 24th Street & Geist Road, Erie, PA, USA",
        "Court Type": "2 outdoor Courts",
        "Access": "Free Access",
        "Lighting": "No Lighting",
        "Court Purpose": "Dedicated Pickleball Courts",
        "Latitude": 42.0990076,
        "Longitude": -80.1144032
    },
    {
        "SN": 239,
        "Name": "Ball Ground city courts",
        "Location": "120 Civic Dr, Ball Ground, GA 30107, USA",
        "Court Type": "4 outdoor Courts",
        "Access": "Free Access",
        "Lighting": "Has Lighting",
        "Court Purpose": "Dedicated Pickleball Courts",
        "Latitude": 34.33698700629353,
        "Longitude": -84.37388296942368
    },
    {
        "SN": 240,
        "Name": "Ballard Community Center",
        "Location": "6020 28th Ave NW, Seattle, WA 98107, USA",
        "Court Type": "3 indoor Courts",
        "Access": "Membership",
        "Lighting": "Has Lighting",
        "Court Purpose": "Dedicated Pickleball Courts",
        "Latitude": 47.672843549999996,
        "Longitude": -122.39218530611328
    },
    {
        "SN": 241,
        "Name": "Ballard Park",
        "Location": "6500 Colfax Ave, Lincoln, NE 68507, USA",
        "Court Type": "4 outdoor Courts",
        "Access": "Free Access",
        "Lighting": "No Lighting",
        "Court Purpose": "Tennis Courts",
        "Latitude": 40.85097605,
        "Longitude": -96.63173269870023
    },
    {
        "SN": 242,
        "Name": "Ballou Park",
        "Location": "760 West Main St,Danville,VA 24541",
        "Court Type": "2 outdoor Courts",
        "Access": "Free Access",
        "Lighting": "Has Lighting",
        "Court Purpose": "Tennis Courts",
        "Latitude": 36.572462508898425,
        "Longitude": -79.41979290811123
    },
    {
        "SN": 243,
        "Name": "Bally's Hotel Casino",
        "Location": "3645 Las Vegas Blvd S, Las Vegas, NV 89109",
        "Court Type": "8 outdoor Courts",
        "Access": "Membership",
        "Lighting": "Has Lighting",
        "Court Purpose": "Dedicated Pickleball Courts",
        "Latitude": 36.1137843,
        "Longitude": -115.16901066671255
    },
    {
        "SN": 244,
        "Name": "Bamford Park",
        "Location": "3801 S Pine Island Rd, Davie, FL 33328",
        "Court Type": "6 outdoor Courts",
        "Access": "Free Access",
        "Lighting": "Has Lighting",
        "Court Purpose": "Dedicated Pickleball Courts",
        "Latitude": 26.071113,
        "Longitude": -80.264566
    },
    {
        "SN": 245,
        "Name": "Bangert Park",
        "Location": "Florissant, MO, USA",
        "Court Type": "3 outdoor Courts",
        "Access": "Free Access",
        "Lighting": "No Lighting",
        "Court Purpose": "Dedicated Pickleball Courts",
        "Latitude": 38.7919683,
        "Longitude": -90.3227803
    },
    {
        "SN": 246,
        "Name": "Banning community center",
        "Location": "789 N San Gorgonio Ave, Banning, CA 92220, USA",
        "Court Type": "3 outdoor Courts",
        "Access": "Free Access",
        "Lighting": "No Lighting",
        "Court Purpose": "Court Type Other",
        "Latitude": 33.93238955524202,
        "Longitude": -116.876837
    },
    {
        "SN": 247,
        "Name": "Bannon Lakes",
        "Location": "435 Bannon Lakes Blvd, St. Augustine, FL 32095, USA",
        "Court Type": "2 outdoor Courts",
        "Access": "Membership",
        "Lighting": "No Lighting",
        "Court Purpose": "Dedicated Pickleball Courts",
        "Latitude": 30.032144,
        "Longitude": -81.384908
    },
    {
        "SN": 248,
        "Name": "Banting Park",
        "Location": "2101 Butler Dr, Waukesha, WI 53186",
        "Court Type": "10 outdoor Courts",
        "Access": "Free Access",
        "Lighting": "Has Lighting",
        "Court Purpose": "Dedicated Pickleball Courts",
        "Latitude": 43.0305092,
        "Longitude": -88.2049133
    },
    {
        "SN": 249,
        "Name": "Barbara Calhoun Park",
        "Location": "Barbara Calhoun Park, 1802 Tucker Rd, Perry, GA 31069, USA",
        "Court Type": "4 outdoor Courts",
        "Access": "Free Access",
        "Lighting": "Has Lighting",
        "Court Purpose": "Tennis Courts",
        "Latitude": 32.450597,
        "Longitude": -83.71087
    },
    {
        "SN": 250,
        "Name": "Barbers Hill High School",
        "Location": "Unnamed Road, Mont Belvieu, TX 77523, USA",
        "Court Type": "2 outdoor Courts",
        "Access": "Free Access",
        "Lighting": "Has Lighting",
        "Court Purpose": "Tennis Courts",
        "Latitude": 29.84772,
        "Longitude": -94.89076
    },
    {
        "SN": 251,
        "Name": "Barboursville Park Courts",
        "Location": "Park Rd, Barboursville, WV 25504, USA",
        "Court Type": "3 outdoor Courts",
        "Access": "Free Access",
        "Lighting": "No Lighting",
        "Court Purpose": "Dedicated Pickleball Courts",
        "Latitude": 38.394361409322876,
        "Longitude": -82.29838211108353
    },
    {
        "SN": 252,
        "Name": "Barco-Newton YMCA",
        "Location": "2075 Town Center Blvd, Orange Park, FL 32003, USA",
        "Court Type": "2 indoor Courts",
        "Access": "Membership",
        "Lighting": "No Lighting",
        "Court Purpose": "Dedicated Pickleball Courts",
        "Latitude": 30.085061,
        "Longitude": -81.718034
    },
    {
        "SN": 253,
        "Name": "Bardmoor Golf & Tennis Club",
        "Location": "8001 Cumberland Rd, Seminole, FL 33777",
        "Court Type": "6 outdoor Courts",
        "Access": "Membership",
        "Lighting": "Has Lighting",
        "Court Purpose": "Dedicated Pickleball Courts",
        "Latitude": 27.8632804,
        "Longitude": -82.7477892
    },
    {
        "SN": 254,
        "Name": "Baringer Park",
        "Location": "7603 Baringer Rd, Baton Rouge, LA 70817, USA",
        "Court Type": "2 outdoor Courts",
        "Access": "Free Access",
        "Lighting": "No Lighting",
        "Court Purpose": "Dedicated Pickleball Courts",
        "Latitude": 30.38544368550999,
        "Longitude": -91.0179793236555
    },
    {
        "SN": 255,
        "Name": "Barlow Farm Park",
        "Location": "1965 Barlow Rd, Hudson, OH 44236, USA",
        "Court Type": "12 outdoor Courts",
        "Access": "Free Access",
        "Lighting": "No Lighting",
        "Court Purpose": "Dedicated Pickleball Courts",
        "Latitude": 41.215691,
        "Longitude": -81.423517
    },
    {
        "SN": 256,
        "Name": "Barlow Street",
        "Location": "39 Barlow St,Saint Albans,VT 5478",
        "Court Type": "2 outdoor Courts",
        "Access": "Free Access",
        "Lighting": "No Lighting",
        "Court Purpose": "Tennis Courts",
        "Latitude": 44.80519910394772,
        "Longitude": -73.07808072241066
    },
    {
        "SN": 257,
        "Name": "Barnett Rec center",
        "Location": "4801 W Colonial Dr, Orlando, FL 32808, USA",
        "Court Type": "6 outdoor Courts",
        "Access": "Membership",
        "Lighting": "No Lighting",
        "Court Purpose": "Dedicated Pickleball Courts",
        "Latitude": 28.55234918879488,
        "Longitude": -81.4426179208048
    },
    {
        "SN": 258,
        "Name": "Barney Park",
        "Location": "1950 Cleveland St, Helena, MT 59601, USA",
        "Court Type": "8 outdoor Courts",
        "Access": "Free Access",
        "Lighting": "No Lighting",
        "Court Purpose": "Tennis Courts",
        "Latitude": 46.60683351020408,
        "Longitude": -112.04865353061226
    },
    {
        "SN": 259,
        "Name": "Barnstable Pickleball and Tennis Complex",
        "Location": "760 Osterville West Barnstable Rd, Marstons Mills, MA 02648, USA",
        "Court Type": "10 outdoor Courts",
        "Access": "Free Access",
        "Lighting": "No Lighting",
        "Court Purpose": "Dedicated Pickleball Courts",
        "Latitude": 41.662651049999994,
        "Longitude": -70.38689319189594
    },
    {
        "SN": 260,
        "Name": "Barr Road Sports Complex",
        "Location": "213 Barr Rd, Lexington, SC 29072, USA",
        "Court Type": "6 outdoor Courts",
        "Access": "Membership",
        "Lighting": "No Lighting",
        "Court Purpose": "Court Type Other",
        "Latitude": 33.9760818,
        "Longitude": -81.26158
    },
    {
        "SN": 261,
        "Name": "Barrington Middle School",
        "Location": "Barrington Middle School, Middle Highway, Barrington, RI, USA",
        "Court Type": "8 outdoor Courts",
        "Access": "Free Access",
        "Lighting": "Has Lighting",
        "Court Purpose": "Dedicated Pickleball Courts",
        "Latitude": 41.74066,
        "Longitude": -71.30866
    },
    {
        "SN": 262,
        "Name": "Barrontown Community Center",
        "Location": "610 Herrington Rd, Petal, MS 39465, USA",
        "Court Type": "2 outdoor Courts",
        "Access": "Free Access",
        "Lighting": "Has Lighting",
        "Court Purpose": "Dedicated Pickleball Courts",
        "Latitude": 31.363228568783825,
        "Longitude": -89.20503377222988
    },
    {
        "SN": 263,
        "Name": "Barry",
        "Location": "Naples, FL, USA",
        "Court Type": "1 outdoor Courts",
        "Access": "Free Access",
        "Lighting": "Has Lighting",
        "Court Purpose": "Tennis Courts",
        "Latitude": 26.14204,
        "Longitude": -81.79481
    },
    {
        "SN": 264,
        "Name": "Barthelmas Park",
        "Location": "830 Kingston Pike, Circleville, OH 43113, USA",
        "Court Type": "4 outdoor Courts",
        "Access": "Free Access",
        "Lighting": "No Lighting",
        "Court Purpose": "Dedicated Pickleball Courts",
        "Latitude": 39.5916450879396,
        "Longitude": -82.92753903329928
    },
    {
        "SN": 265,
        "Name": "Bartlett Park",
        "Location": "2000 7th St S, St. Petersburg, FL 33705, USA",
        "Court Type": "6 outdoor Courts",
        "Access": "Free Access",
        "Lighting": "No Lighting",
        "Court Purpose": "Dedicated Pickleball Courts",
        "Latitude": 27.750497199999998,
        "Longitude": -82.6415987
    },
    {
        "SN": 266,
        "Name": "Bartling Park",
        "Location": "1045 Jefferson St,Douglas,WY 82633",
        "Court Type": "2 outdoor Courts",
        "Access": "Free Access",
        "Lighting": "No Lighting",
        "Court Purpose": "Dedicated Pickleball Courts",
        "Latitude": 42.74571382613766,
        "Longitude": -105.37754361793002
    },
    {
        "SN": 267,
        "Name": "BASE Big Sky",
        "Location": "Big Sky Meadow Village, Big Sky, MT 59730, USA",
        "Court Type": "3 indoor Courts",
        "Access": "Membership",
        "Lighting": "Has Lighting",
        "Court Purpose": "Dedicated Pickleball Courts",
        "Latitude": 45.2674286,
        "Longitude": -111.3019001
    },
    {
        "SN": 268,
        "Name": "Basil Griffin",
        "Location": "Basil Griffin, Three Springs Road, Bowling Green, KY, USA",
        "Court Type": "4 outdoor Courts",
        "Access": "Free Access",
        "Lighting": "Has Lighting",
        "Court Purpose": "Dedicated Pickleball Courts",
        "Latitude": 36.99032,
        "Longitude": -86.4436
    },
    {
        "SN": 269,
        "Name": "Basil Marella Park",
        "Location": "975 English Rd, Rochester, NY 14624",
        "Court Type": "3 outdoor Courts",
        "Access": "Free Access",
        "Lighting": "Has Lighting",
        "Court Purpose": "Tennis Courts",
        "Latitude": 43.2367957,
        "Longitude": -77.6753473
    },
    {
        "SN": 270,
        "Name": "Basin Recreation Fieldhouse",
        "Location": "1388 Center Dr, Park City, UT 84098, USA",
        "Court Type": "3 indoor Courts",
        "Access": "Membership",
        "Lighting": "No Lighting",
        "Court Purpose": "Dedicated Pickleball Courts",
        "Latitude": 40.723043,
        "Longitude": -111.537483
    },
    {
        "SN": 271,
        "Name": "Bass Lake Playfields",
        "Location": "Bass Lake Playfield, Northwest Boulevard, Plymouth, MN, USA",
        "Court Type": "6 outdoor Courts",
        "Access": "Free Access",
        "Lighting": "Has Lighting",
        "Court Purpose": "Dedicated Pickleball Courts",
        "Latitude": 45.01052,
        "Longitude": -93.45551
    },